year_funded,province,district,municipality,barangay,project_name,status,projects,length_km,influence_area_ha,farmer_beneficiaries,latitude,longitude
2016,BATANES,LONE,BASCO,DJAHANG,CONCRETING OF DJAHANG FMR,COMPLETED,1,0.2,50,30,20.458024000000002,121.9659
2016,BATANES,LONE,BASCO,SAN ANTONIO,CONCRETING OF MALAYU - DISEB FMR,COMPLETED,1,0.2,65,150,20.456786000000001,121.970169
2016,BATANES,LONE,ITBAYAT,RAELE,CONCRETING OF PANEMBATAN FMR,COMPLETED,1,1,75,150,20.731368,121.78881800000001
2016,BATANES,LONE,ITBAYAT,SAN RAFAEL,CONCRETING OF NAXURUD-CHINAPASWAN FTMR,COMPLETED,1,0.3,120,170,20.786192,121.836927
2016,BATANES,LONE,ITBAYAT,SAN RAFAEL,CONSTRUCTION OF KAMAYATUAN-MINASULI FTMR,COMPLETED,1,0.3,65,50,20.757788999999999,121.83702700000001
2016,BATANES,LONE,ITBAYAT,STA MARIA,REHABILITATION/IMPROVEMENT OF RAXAAYAN-KAXASWAS FMR,COMPLETED,1,0.2,70,70,20.802607999999999,121.84156
2016,BATANES,LONE,ITBAYAT,STA. LUCIA,CONCRETING OF LIPTAN-KARWARWAY FMR,COMPLETED,1,0.3,90,40,20.776627999999999,121.839567
2016,BATANES,LONE,ITBAYAT,STA. ROSA,CONCRETING OF LISED-MULONG FMR,COMPLETED,1,2,33,180,20.799620999999998,121.848263
2016,BATANES,LONE,ITBAYAT,STA. ROSA,REHABILITATION/IMPROVEMENT OF KATUYAN-CAPARIAN FMR,COMPLETED,1,0.2,90,50,20.798926000000002,121.842271
2016,BATANES,LONE,IVANA,SALAGAO,CONCRETING OF SAYED-TUNGA EXTENSION FTMR,COMPLETED,1,0.2,60,50,20.384543000000001,121.938103
2016,BATANES,LONE,IVANA,TUHEL,REHABILITATION/IMPROVEMENT OF ISNAHAYAN-MAYSOLIO FTMR,COMPLETED,1,0.2,144,100,20.371780000000001,121.92212000000001
2016,BATANES,LONE,MAHATAO,HANIB,CONCRETING OF VIAWU-TUNGA FTMR,COMPLETED,1,0.2,70,75,20.409338999999999,121.942123
2016,BATANES,LONE,MAHATAO,PAKARAYAN-TANUD-VUCHID,CONCRETING OF PAKARAYAN-TANUD-VUCHID FMR,COMPLETED,1,1.1,80,70,20.396198999999999,121.956962
2016,BATANES,LONE,MAHATAO,PANATAYAN,CONCRETING OF SUNGET-VANICHAS FMR,COMPLETED,1,0.2,100,40,20.417186000000001,121.950964
2016,BATANES,LONE,MAHATAO,UVOY,CONCRETING OF DISEB-VADICHI FMR,COMPLETED,1,0.2,70,50,20.405836999999998,121.95369599999999
2016,BATANES,LONE,SABTANG,MALAKDANG,CONCRETING OF HATENG-PAMONSINAN FMR,COMPLETED,1,0.2,95,30,20.320474999999998,121.870897
2016,BATANES,LONE,UYUGAN,KAYVALUGANAN,REHABILITATION/IMPROVEMENT OF MAHADHAD-CHANALAN FMR,COMPLETED,1,0.2,100,90,20.35427,121.941362
2016,BATANES,LONE,UYUGAN,SONGSONG-HARONG,CONCRETING OF SONGSONG-HARONG FMR,COMPLETED,1,0.3,190,30,20.361314,121.950997
2016,CAGAYAN,I,ALCALA,ABBEG / MINANGA,CONCRETING OF ABBEG-MINANGA FMR,COMPLETED,1,0.187,100,150,17.842699,121.621801
2016,CAGAYAN,I,APARRI,PADDAYA,CONCRETING OF PADDAYA FMR,COMPLETED,1,0.3015,150,300,18.331579999999999,121.71838
2016,CAGAYAN,I,APARRI,ZANJA / BISAGU,CONCRETING OF ZANJA-BISAGU FMR,COMPLETED,1,0.273,200,100,18.345925999999999,121.621318
2016,CAGAYAN,I,BAGGAO,ABUSAG,CONCRETING OF ABUSAG-SITIO MARUS FMR,COMPLETED,1,0.435,150,100,17.890965999999999,121.91265199999999
2016,CAGAYAN,I,BAGGAO,TAGUING,IMPROVEMENT OF TAGUING FMR,COMPLETED,1,0.232,165,120,17.943821,121.756975
2016,CAGAYAN,I,BUGUEY,SAN VICENTE,CONCRETING OF SAN VICENTE FMR,COMPLETED,1,0.3865,200,600,18.249165999999999,121.805863
2016,CAGAYAN,I,BUGUEY,STA. ISABEL,CONCRETING OF STA. ISABEL FMR,COMPLETED,1,0.332,260,200,18.201906000000001,121.822655
2016,CAGAYAN,I,CAMALANIUGAN,JOAQUIN DELA CRUZ / DAMMANG,"REHABILITATION OF JOAQUIN DELA CRUZ, DAMMANG FMR",COMPLETED,1,0.565,185,100,18.279315,121.653739
2016,CAGAYAN,I,GATTARAN,CAPISSAYAN SUR,ROAD OPENING OF CAPISSAYAN SUR FMR,COMPLETED,1,0.347,50,100,18.043043000000001,121.81973000000001
2016,CAGAYAN,I,GONZAGA,KADALAGAN,CONSTRUCTION OF KADALAGAN FMR,COMPLETED,1,0.401,100,200,18.259609999999999,122.006624
2016,CAGAYAN,I,LAL-LO,CAMBONG,REHABILITATION/IMPROVEMENT OF CAMBONG-BINAG FMR,COMPLETED,1,0.311,120,300,18.192982000000001,121.709998
2016,CAGAYAN,I,LAL-LO,CULLIT/ROSARIO,CONCRETING OF CULLIT-ROSARIO FMR (PHASE I),COMPLETED,1,0.7055,401,300,18.224115000000001,121.756062
2016,CAGAYAN,I,STA. ANA,RAPULI,CONSTRUCTION/ROAD OPENING OF FISAT-KATIWAYAN (PHASE 2) FMR,COMPLETED,1,0.2955,80,60,18.408442000000001,122.137669
2016,CAGAYAN,I,STA. TERESITA,LUGA,CONCRETING OF LUGA FMR,COMPLETED,1,0.115,95,70,18.216605999999999,121.892692
2016,CAGAYAN,II,ABULUG,CANAYUN,REHABILITATION/CONSTRUCTION OF CANAYUN FMR,COMPLETED,1,0.262,120,70,18.397074,121.42458600000001
2016,CAGAYAN,II,ABULUG,STA. ROSA,REHABILITATION/CONSTRUCTION OF STA. ROSA FMR,COMPLETED,1,0.245,55,100,18.369263,121.44373400000001
2016,CAGAYAN,II,ALLACAPAN,CATARATAN,REHABILITATION/CONSTRUCTION OF CATARATAN FMR,COMPLETED,1,0.225,85,55,18.239332000000001,121.50229
2016,CAGAYAN,II,ALLACAPAN,NAGATTATAN,REHABILITATION/CONSTRUCTION OF NAGATTATAN FMR,COMPLETED,1,0.226,105,80,18.135480000000001,121.498711
2016,CAGAYAN,II,BALLESTEROS,CABULUAN / MABURIL,REHABILITATION/CONSTRUCTION OF CABULUAN-MABURIL (PHASE 2) FMR,COMPLETED,1,0.27,150,300,18.409438999999999,121.49515700000001
2016,CAGAYAN,II,CALAYAN,BALISIBOC,REHABILITATION/CONSTRUCTION OF BALISIBOC FMR,COMPLETED,1,0.184,20,100,18.996397999999999,121.896221
2016,CAGAYAN,II,CLAVERIA,BILIBIGAO / KILKILING,REHABILITATION/CONSTRUCTION OF BILIBIGAO-KILKILING FMR,COMPLETED,1,0.26,120,250,18.582182,121.068422
2016,CAGAYAN,II,CLAVERIA,KAPANIKIAN / TABBUGAN,REHABILITATION/CONSTRUCTION OF KAPANIKIAN-TABBUGAN(PHASE 2) FMR,COMPLETED,1,0.288,300,500,18.559301000000001,121.09736100000001
2016,CAGAYAN,II,LASAM,MALINTA,REHABILITATION/CONSTRUCTION OF MALINTA FMR,COMPLETED,1,0.22,400,270,18.090256,121.623768
2016,CAGAYAN,II,LASAM,PERU / SIKALAW / SIMUD,REHABILITATION/CONSTRUCTION OF PERU-SIKALAW AND PERU SIMUD FMR,COMPLETED,1,0.206,85,60,18.056194000000001,121.51348299999999
2016,CAGAYAN,II,PAMPLONA,CASITAN,REHABILITATION/CONSTRUCTION OF CASITAN FMR,COMPLETED,1,0.293,50,150,18.494304,121.325988
2016,CAGAYAN,II,PIAT,VILLA-REYNO / APAYAO,REHABILITATION/CONSTRUCTION OF VILLA-REYNO-APAYAO (PHASE 2) FMR,COMPLETED,1,0.465,100,200,17.812293,121.490396
2016,CAGAYAN,II,RIZAL,ILLURU,REHABILITATION/CONSTRUCTION OF ILLURU FMR,COMPLETED,1,0.265,200,250,17.837292999999999,121.399648
2016,CAGAYAN,II,SANCHEZ  MIRA,DAMMANG / DACAL,REHABILITATION/CONSTRUCTION OF DAMMANG-DACAL FMR,COMPLETED,1,0.431,110,200,18.573905,121.23157
2016,CAGAYAN,II,SANCHEZ  MIRA,NAGSABARAN,REHABILITATION/CONSTRUCTION OF CSU-NAGSABARAN FMR,COMPLETED,1,0.264,60,100,18.548501000000002,121.210803
2016,CAGAYAN,II,STA. PRAXEDES,CENTRO-02 / SALONGSONG,REHABILITATION/CONSTRUCTION OF CENTRO 02-SALONGSONG FMR,COMPLETED,1,0.272,80,100,18.5611,120.985524
2016,CAGAYAN,II,STA. PRAXEDES,SAN JUAN/WACCA,CONSTRUCTION/CONCRETING OF SAN JUAN-WACCA FMR,COMPLETED,1,0.325,110,150,18.572970999999999,120.98485100000001
2016,CAGAYAN,III,AMULUNG,MANALO-MAGOGOD,CONCRETING OF MANALO-MAGOGOD FMR,COMPLETED,1,0.6055,550,1000,17.875468999999999,121.735467
2016,CAGAYAN,III,ENRILE,LIWAN SUR-LIWAN NORTE,CONCRETING OF LIWAN SUR-LIWAN NORTE FMR,COMPLETED,1,0.685,600,300,17.531616,121.63548900000001
2016,CAGAYAN,III,IGUIG,BACULUD-STA. BARBARA,CONCRETING OF BACULUD-STA. BARBARA FMR,COMPLETED,1,0.254,75,250,17.765888,121.75453
2016,CAGAYAN,III,IGUIG,SAN ISIDRO-SAN VICENTE,CONCRETING OF SAN ISIDRO-SAN VICENTE FMR,COMPLETED,1,0.304,80,300,17.772496,121.71789099999999
2016,CAGAYAN,III,PEÑABLANCA,CALLAO,CONCRETING OF CALLAO FMR,COMPLETED,1,0.3111,125,400,17.686453,121.80373299999999
2016,CAGAYAN,III,PEÑABLANCA,SAN ROQUE,CONCRETING OF SAN ROQUE FMR,COMPLETED,1,0.485,125,400,17.649663,121.815076
2016,CAGAYAN,III,SOLANA,DASSUN-AGUIRIT-MALACABIBI,CONCRETING OF DASSUN-AGUIRIT-MALACABIBI FMR,COMPLETED,1,0.2615,50,100,17.750602000000001,121.701764
2016,CAGAYAN,III,SOLANA,GENERAL BALAO,CONCRETING OF GENERAL BALAO FMR,COMPLETED,1,0.241,70,200,17.657527999999999,121.63374899999999
2016,CAGAYAN,III,SOLANA,NABBOTUAN,CONCRETING OF NABBOTUAN FMR,COMPLETED,1,0.42926,170,250,17.566935999999998,121.577416
2016,CAGAYAN,III,TUAO,BARANCUAG,CONCRETING OF BARANCUAG FMR, TERMINATED,1,0.4925,150,150,17.701122999999999,121.465452
2016,CAGAYAN,III,TUAO,LAKAMBINI/MAMBACAG,CONCRETING OF LAKAMBINI-MAMBACAG PHASE II FMR,COMPLETED,1,2.697,500,500,17.678989999999999,121.537094
2016,CAGAYAN,III,TUAO,SAN VICENTE - TARIBUBU,CONCRETING OF SAN VICENTE - TARIBUBU FMR,COMPLETED,1,0.4565,550,500,17.616664,121.513392
2016,CAGAYAN,III,TUGUEGARAO CITY,DADDA,CONCRETING OF DADDA FMR,COMPLETED,1,0.562,160,100,17.564993000000001,121.779685
2016,ISABELA,I,CABAGAN,AGGUB,CONSTRUCTION OF AGGUB FMR,COMPLETED,1,0.98,269,285,17.414722000000001,121.729725
2016,ISABELA,I,CABAGAN,MASIPI EAST-WEST,CONSTRUCTION OF MASIPI EAST-WEST FMR,COMPLETED,1,1.92,100,85,17.383581,121.861254
2016,ISABELA,I,CABAGAN,SAN ANTONIO,CONSTRUCTION OF SAN ANTONIO FMR,COMPLETED,1,0.869,536,475,17.384198000000001,121.688241
2016,ISABELA,I,SAN PABLO,LIMBAUAN-MASIPI EAST,CONSTRUCTION OF LIMBAUAN-MASIPI EAST FMR,COMPLETED,1,1.82063,700,165,17.410885,121.870041
2016,ISABELA,I,STA. MARIA,MOZZOZZIN- BUENAVISTA,CONASTRUCTION OFMOZZOZZIN- BUENAVISTA FMR,COMPLETED,1,1.03,195,150,17.458029,121.744041
2016,ISABELA,I,TUMAUINI,UGAD,CONSTRUCTION OF UGAD FMR,COMPLETED,1,0.667,150,120,17.316458000000001,121.808926
2016,ISABELA,II,BENITO SOLIVEN,DISTRICT I,CONCRETING/IMPROVEMENT OF DISTRICT I FMR,COMPLETED,1,0.473,120,80,16.977712,121.957778
2016,ISABELA,II,BURGOS,BACNOR,CONSTRUCTION OF BARANGAY BACNOR FMR,COMPLETED,1,0.716,150,61,17.031701999999999,121.706433
2016,ISABELA,II,GAMU,UPI,CONSTRUCTION OF ISABELA EXPERIMENT STATION FMR,COMPLETED,1,0.292,150,85,17.066030000000001,121.857401
2016,ISABELA,II,QUEZON,"ARELLANO, CALLANGIGAN",CONCRETING/IMPROVEMENT OF ARELLANO-CALLANGIGAN FMR,COMPLETED,1,1.491,130,60,17.320713999999999,121.58819800000001
2016,ISABELA,II,QUEZON,DUMMON,CONCRETING/IMPROVEMENT OF DUMMON FMR,COMPLETED,1,0.234,100,75,17.271523999999999,121.56067
2016,ISABELA,II,QUEZON,MANGGA,CONCRETING/IMPROVEMENT OF MANGGA FMR,COMPLETED,1,0.367,250,230,17.296897999999999,121.60988999999999
2016,ISABELA,II,QUEZON,SAN JUAN-ESTRADA-DUMMON,CONCRETING/IMPROVEMENT OF SAN JUAN-ESTRADA-DUMMON FMR,COMPLETED,1,0.668,150,75,17.260856,121.601613
2016,ISABELA,II,ROXAS,MARCOS-MUÑOZ WEST,CONCRETING/IMPROVEMENT OF MARCOS-MUÑOZ WEST FMR,COMPLETED,1,0.692,216,89,17.159081,121.601454
2016,ISABELA,II,ROXAS,RANG AYAN - MASIGUN,CONCRETING/IMPROVEMENT OF RANG AYAN - MASIGUN FMR,COMPLETED,1,0.662,126,115,17.114039999999999,121.639922
2016,ISABELA,II,ROXAS,SAN JOSE,CONCRETING/IMPROVEMENT OF ROAD 1-SAN JOSE FARM TO MARKET ROAD,COMPLETED,1,0.671,72,105,17.099606999999999,121.657347
2016,ISABELA,II,ROXAS,VILLA CONCEPCION,CONSTRUCTION OF VILLA CONCEPTIONFMR,COMPLETED,1,0.291,85,80,17.159921000000001,121.63969299999999
2016,ISABELA,III,ANGADANAN,BUNNAY-LA SUERTE- BUENAVISTA,CONSTRUCTION OF BUNNAY-LA SUERTE- BUENAVISTA FMR,COMPLETED,1,2.354,100,100,16.761164999999998,121.786548
2016,ISABELA,III,ANGADANAN,BUNNAY-MABUHAY-SALAY,CONSTRUCTION OF BUNNAY-MABUHAY-SALAY FMR,COMPLETED,1,1.418,125,134,16.760994,121.769064
2016,ISABELA,III,SAN GUILLERMO,ANONANG- COLORADO,CONSTRUCTION OF ANONANG- COLORADO FMR,COMPLETED,1,2.261,1437,200,16.741599000000001,121.885284
2016,ISABELA,IV,JONES,DALIGAN,CONSTRUCTION OF DALIGAN FMR,COMPLETED,1,0.906,135,70,16.539232999999999,121.733406
2016,ISABELA,IV,RAMON,SAN MIGUEL-PLANAS,CONSTRUCTION OF SAN MIGUEL-PLANAS FMR,COMPLETED,1,0.954,100,100,16.784448999999999,121.483735
2016,ISABELA,IV,SANTIAGO CITY,CABULAY-VILLA MARZO,CONSTRUCTION OF CABULAY-VILLA MARZO FMR,COMPLETED,1,1.038,140,90,16.720706,121.485204
2016,NUEVA VIZCAYA,LONE,BAGABAG,MURONG,CONSTRUCTION OF NFA-KATEPPANGAN FMR,COMPLETED,1,0.446,75,150,16.607405,121.229315
2016,NUEVA VIZCAYA,LONE,BAGABAG,VILLAROS,CONSTRUCTION OF NUEVA VIZCAYA EXPERIMENTAL STATION ROAD NETWORK,COMPLETED,1,0.3815,185,100,16.611021000000001,121.28879999999999
2016,NUEVA VIZCAYA,LONE,BAMBANG,ALMAGUER,CONCRETING OF NUEVA VIZCAYA AGRICULTURAL TERMINAL (NVAT) FMR,COMPLETED,1,1.228,85,75,16.365447,121.09772700000001
2016,NUEVA VIZCAYA,LONE,BAYOMBONG,CABUAAN,CONCRETING OF CABUAAN FMR,COMPLETED,1,0.292,90,75,16.539949,121.101299
2016,NUEVA VIZCAYA,LONE,KASIBU,ALLOY,CONSTRUCTION OF ALLOY FMR,COMPLETED,1,0.415,65,60,16.339138999999999,121.297504
2016,NUEVA VIZCAYA,LONE,KASIBU,CORDON,CONSTRUCTION OF CORDON FMR,COMPLETED,1,0.3915,80,110,16.361145,121.236508
2016,NUEVA VIZCAYA,LONE,KASIBU,MACALONG,CONSTRUCTION OF PUROK 4 FMR,COMPLETED,1,0.3555,110,200,16.345739999999999,121.229018
2016,NUEVA VIZCAYA,LONE,KASIBU,MALABING,CONSTRUCTION OF MALABING FMR,COMPLETED,1,0.1508,95,100,16.352319999999999,121.37544200000001
2016,NUEVA VIZCAYA,LONE,KASIBU,PUDI,CONSTRUCTION OF LOWER SESE PUDI FMR,COMPLETED,1,0.3375,80,100,16.302588,121.303657
2016,NUEVA VIZCAYA,LONE,KASIBU,SIGUEM,CONSTRUCTION OF SIGUEM SCHOOL SITE FMR,COMPLETED,1,0.489,65,300,16.279736,121.310075
2016,NUEVA VIZCAYA,LONE,KASIBU,TADJI,CONSTRUCTION OF PUROK 7 FMR,COMPLETED,1,0.23,80,145,16.404025000000001,121.410044
2016,NUEVA VIZCAYA,LONE,KAYAPA,AMELONG-LABENG,BESONG-AMELONG-LABENG FMR,COMPLETED,1,0.549,12,50,16.337312000000001,120.894831
2016,NUEVA VIZCAYA,LONE,KAYAPA,KAYAPA PROPER WEST,CONSTRUCTION OF SITIO TUYUNGAN FMR,COMPLETED,1,0.2505,110,100,16.29128,120.85358600000001
2016,NUEVA VIZCAYA,LONE,SOLANO,AGGUB,CONSTRUCTION OF ACIO FMR,COMPLETED,1,0.3495,160,140,16.545819000000002,121.198711
2016,NUEVA VIZCAYA,LONE,SOLANO,BASCARAN,CONSTRUCTION OF PUROK 2 KASANTOLAN FMR,COMPLETED,1,0.404,120,250,16.543013999999999,121.220766
2016,NUEVA VIZCAYA,LONE,SOLANO,CURIFANG,CONSTRUCTION OF PUROK 2-PUROK 7 FMR,COMPLETED,1,0.269,150,180,16.517306999999999,121.21320299999999
2016,NUEVA VIZCAYA,LONE,SOLANO,P.D. GALIMA,CONSTRUCTION OF TANAP FMR,COMPLETED,1,0.4333,130,150,16.545725000000001,121.16514100000001
2016,NUEVA VIZCAYA,LONE,SOLANO,QUEZON,CONSTRUCTION OF NAMPAYAKAN FMR,COMPLETED,1,0.235,95,130,16.520800000000001,121.16416700000001
2016,NUEVA VIZCAYA,LONE,SOLANO,SAN LUIS,CONSTRUCTION OF PUROK 6 STA ROSA FMR,COMPLETED,1,0.4013,110,230,16.545289,121.18657899999999
2016,QUIRINO,LONE,AGLIPAY,DUNGO,CONCRETING/IMPROVEMENT OF QUIRINO EXPERIMENT STATION ROAD NETWORK,COMPLETED,1,0.4,245,150,16.410046999999999,121.662094
2016,QUIRINO,LONE,AGLIPAY,RAMOS,CONCRETING/IMPROVEMENT OF RAMOS FMR,COMPLETED,1,0.28,451,272,16.479265999999999,121.664869
2016,QUIRINO,LONE,AGLIPAY,SAN RAMON,CONCRETING/IMPROVEMENT OF SAN RAMON FMR,COMPLETED,1,0.218,245,212,16.444655000000001,121.674161
2016,QUIRINO,LONE,CABARROGUIS,VILLA PEÑA,CONCRETING/IMPROVEMENT OF VILLA PEÑA FMR,COMPLETED,1,0.24,366,160,16.458110000000001,121.51553199999999
2016,QUIRINO,LONE,CABARROGUIS,VILLA ROSE,CONCRETING/IMPROVEMENT OF VILLA ROSE FMR,COMPLETED,1,0.4,370,160,16.489695000000001,121.47623900000001
2016,QUIRINO,LONE,DIFFUN,AKLAN VILLAGE,CONCRETING/IMPROVEMENT OF AKLAN VILLAGE FMR,COMPLETED,1,0.167,226,210,16.496962,121.46731800000001
2016,QUIRINO,LONE,DIFFUN,RICARTE SUR,CONCRETING/IMPROVEMENT OF RICARTE SUR FMR,COMPLETED,1,0.24,258,110,16.529,121.50190499999999
2016,QUIRINO,LONE,MADDELA,BALLIGUI,CONCRETING/IMPROVEMENT OF BALLIGUI FMR,COMPLETED,1,0.228,711,470,16.364442,121.615578
2016,QUIRINO,LONE,MADDELA,DUMBATO SUR,CONCRETING/IMPROVEMENT OF DUMABATO SUR FMR,COMPLETED,1,0.301,384,310,16.343069,121.647535
2016,QUIRINO,LONE,NAGTIPUNAN,ASAKLAT,CONCRETING/IMPROVEMENT OF ASAKLAT FMR,COMPLETED,1,0.5,200,140,16.274788999999998,121.597548
2016,QUIRINO,LONE,NAGTIPUNAN,SAN DIONISO II,"CONCRETING/IMPROVEMENT OF SITIO DIVINSIN, SAN DIONISO II FMR",COMPLETED,1,0.58,450,200,16.241403999999999,121.624937
2016,QUIRINO,LONE,SAGUDAY,LA PAZ,CONCRETING/IMPROVEMENT OF LA PAZ FMR,COMPLETED,1,0.2404,274,240,16.575040999999999,121.573097
2016,QUIRINO,LONE,SAGUDAY,MAGSAYSAY,CONCRETING/IMPROVEMENT OF MAGSAYSAY FMR,COMPLETED,1,0.275,317,285,16.538630000000001,121.564995
2017,BATANES,LONE,BASCO,"BASCO,BATANES",CONCRETING OF BATANES EXPERIMENT STATION ROAD NETWORK FMR,COMPLETED,1,0.123,14,100,20.439923,121.96567400000001
2017,BATANES,LONE,BASCO,CHANARIAN-TUKON,"CONCRETING OF PAYIN I, CHANARIAN-TUKON FMR",COMPLETED,1,0.097,18,60,20.431501999999998,121.96287
2017,BATANES,LONE,BASCO,KAYVALUGANAN,"CONCRETING OF STA. MARIA-MARANAO (PHASE IV) , KAYVALUGANAN FMR",COMPLETED,1,0.113,45,100,20.454592999999999,121.986535
2017,BATANES,LONE,BASCO,KAYYCHANARIANAN,"CONCRETING OF SITIO -YASYAS, KAYYCHANARIANAN FMR",COMPLETED,1,0.111,14,50,20.445115999999999,121.972221
2017,BATANES,LONE,BASCO,SAN ANTONIO,"CONCRETING OF MALAYO, SAN ANTONIO FMR",COMPLETED,1,0.19,56,70,20.45551,121.971558
2017,BATANES,LONE,ITBAYAT,RAELE,"CONCRETING OF TALIH-VARUGAN,RAELE FMR",COMPLETED,1,0.187,55,70,20.727540000000001,121.81664000000001
2017,BATANES,LONE,ITBAYAT,STA. MARIA,"CONCRETING OF CAMAYA, STA.MARIA FMR",COMPLETED,1,0.155,90,70,20.779398,121.86350400000001
2017,BATANES,LONE,ITBAYAT,STA. ROSA,"CONCRETING OF LISED-MULONG (PHASE III), STA. ROSA FMR",COMPLETED,1,0.569,55,100,20.803850000000001,121.853115
2017,BATANES,LONE,ITBAYAT,"STA. ROSA,","CONCRETING OF CAPARIAN, STA. ROSA FMR",COMPLETED,1,0.374,48,70,20.79626,121.842308
2017,BATANES,LONE,IVANA,TUHEL,"CONCRETING OF SAYED-CHIVEH, TUHEL FMR",COMPLETED,1,0.222,15,90,20.376443999999999,121.929007
2017,BATANES,LONE,MAHATAO,HANIB,"CONCRETING OF DISVAYANGAN-VADICHI (PHASE II), HANIB FMR",COMPLETED,1,0.09,24,100,20.413177999999998,121.944231
2017,BATANES,LONE,SABTANG,CHAVAYAN,"CONCRETING OF VANGUNUN-ASKED, CHAVAYAN FMR",COMPLETED,1,0.1,66,100,20.279890999999999,121.86769700000001
2017,BATANES,LONE,SABTANG,SAVUDUG,"CONCRETING OF MANARU-CHANINU, SAVUDUG FMR",COMPLETED,1,0.165,40,100,20.310986,121.879724
2017,BATANES,LONE,SABTANG,SINAKAN,"CONCRETING OF PINRAWATAN-VAYTAN, SINAKAN FMR",COMPLETED,1,0.081,42,100,20.324096999999998,121.863118
2017,BATANES,LONE,UYUGAN,IMNAJBU,"CONCRETING OF CHINGTEB-BABAL, IMNAJBU FMR",COMPLETED,1,0.07,21,49,20.383240000000001,121.969796
2017,BATANES,LONE,UYUGAN,ITBUD,"CONCRETING OF DIAHEM-HATENG, ITBUD FMR",COMPLETED,1,0.044,76,100,20.366728999999999,121.957927
2017,CAGAYAN,I,APARRI,PADDAYA,IMPROVEMENT/CONCRETING OF PADDAYA (PHASE II) FMR,COMPLETED,1,0.6165,1000,500,18.330760000000001,121.72264
2017,CAGAYAN,I,BAGGAO,REMUS,CONCRETING OF PUROK- PAPAYA REMUS FMR,COMPLETED,1,0.759,150,500,17.990324000000001,121.92093300000001
2017,CAGAYAN,I,CAMALANIUGAN,MINANGA,CONCRETING OF MINANGA FMR,COMPLETED,1,0.159,100,200,18.269362999999998,121.719516
2017,CAGAYAN,I,CAMALANIUGAN,SAPPING,CONCRETING OF SAPPING FMR,COMPLETED,1,0.2803,50,100,18.269272999999998,121.679306
2017,CAGAYAN,I,GATTARAN,CABAYU,CONCRETING OF CABAYU FMR,COMPLETED,1,0.186,212,150,18.060192000000001,121.679852
2017,CAGAYAN,I,GATTARAN,CAPIDDIGAN,CONCRETING OF CAPIDDIGAN FMR,COMPLETED,1,0.342,93,70,18.028593000000001,121.750699
2017,CAGAYAN,I,GATTARAN,NAGATUTUAN,CONCRETING OF NAGATUTUAN FMR,COMPLETED,1,0.27,150,100,18.061933,121.66554499999999
2017,CAGAYAN,I,GATTARAN,TAGUMAY,CONCRETING OF TAGUMAY FMR,COMPLETED,1,0.27,135,90,18.029018000000001,121.699093
2017,CAGAYAN,I,GATTARAN,TAKIKI,CONCRETING OF TAKIKI FMR,COMPLETED,1,0.256,120,80,18.053104999999999,121.65656199999999
2017,CAGAYAN,I,GONZAGA,PATENG,CONCRETING OF LUSONG (PHASE II) PATENG FMR,COMPLETED,1,0.456,60,200,18.252582,121.991602
2017,CAGAYAN,II,ABULUG,"BAGU, ABULUG",CONCRETING OF BAGU FMR,COMPLETED,1,0.3285,50,50,18.437342999999998,121.47035099999999
2017,CAGAYAN,II,ABULUG,CALOG NORTE,CONCRETING OF CALOG NORTE FMR,COMPLETED,1,0.242,225,150,18.364595999999999,121.38704199999999
2017,CAGAYAN,II,ABULUG,"GUIDDAM, ABULUG",CONCRETING OF GUIDDAM FMR,COMPLETED,1,0.5,430,250,18.320402000000001,121.476761
2017,CAGAYAN,II,ABULUG,"MAQUIRE, ABULUG",CONCRETING OF NORTHERN CAGAYAN EXPRIMENT STATION ROAD NETWORK FMR,COMPLETED,1,0.333,43,20,18.347062000000001,121.447784
2017,CAGAYAN,II,ABULUG,SAN JULIAN,CONCRETING OF SAN JULIAN FMR,COMPLETED,1,0.31,100,50,18.450025,121.38747600000001
2017,CAGAYAN,II,ABULUG,"STA. FILOMENA, ABULUG",CONCRETING OF STA. FILOMENA FMR,COMPLETED,1,0.2135,160,115,18.427759000000002,121.46259999999999
2017,CAGAYAN,II,ALLACAPAN,"ALLIG VALLEY, ALLACAPAN",CONCRETING OF ALLIG VALLEY FMR,COMPLETED,1,0.2855,1000,500,18.165514000000002,121.49793
2017,CAGAYAN,II,BALLESTEROS,FUGU-PAYAGAN EAST,CONCRETING OF FUGU-PAYAGAN EAST FMR,COMPLETED,1,0.34,100,200,18.344345000000001,121.531346
2017,CAGAYAN,II,CALAYAN,CAMIGUIN,"CONCRETING OF BALATO BAT, CAMIGUIN FMR",COMPLETED,1,0.13,85,50,18.911995999999998,121.8699
2017,CAGAYAN,II,CALAYAN,MAGSIDEL,CONCRETING OF MAGSIDEL FMR,COMPLETED,1,0.1,30,100,19.27441,121.447078
2017,CAGAYAN,II,CLAVERIA,STA. MARIA-BILIBIGAO,CONCRETING OF STA. MARIA-BILIBIGAO FMR,COMPLETED,1,0.2605,210,250,18.583012,121.08519800000001
2017,CAGAYAN,II,LASAM,AGGUNETAN,CONCRETING OF AGGUNETAN (PHASE II) FMR,COMPLETED,1,0.3135,235,300,18.035475999999999,121.61814800000001
2017,CAGAYAN,II,LASAM,CABATACAN WEST,CONCRETING OF CABATACAN WEST FMR,COMPLETED,1,0.305,350,250,18.083725999999999,121.49588300000001
2017,CAGAYAN,II,LASAM,CALAPANGAN NORTE,CONCRETING OF CALAPANGAN NORTE FMR,COMPLETED,1,0.3,150,200,18.016362999999998,121.604615
2017,CAGAYAN,II,PAMPLONA,ABBANGKERUAN,CONCRETING OF ABBANGKERUAN FMR,COMPLETED,1,0.31,57,150,18.456329,121.349571
2017,CAGAYAN,II,PIAT,APAYAO,CONCRETING OF SITIO LABBENG- APAYAO FMR,COMPLETED,1,0.256,110,70,17.826084999999999,121.489137
2017,CAGAYAN,II,PIAT,BAUNG,CONCRETING OF CSU (PHASE II) BAUNG FMR,COMPLETED,1,0.66,110,50,17.791461000000002,121.50525
2017,CAGAYAN,II,PIAT,GUMARUENG,CONCRETING OF GUMARUENG FMR,COMPLETED,1,0.242,150,100,17.776247999999999,121.457685
2017,CAGAYAN,II,RIZAL,CAMBABANGAN-MANAUATAN-PASINGAN,CONCRETING OF CAMBABANGAN-MANAUATAN-PASINGAN FMR,COMPLETED,1,0.238,260,500,17.84601,121.367054
2017,CAGAYAN,III,AMULUNG,BACULUD-DADDA,CONCRETING OF BACULUD-DADDA FMR,COMPLETED,1,0.958,110,75,17.860167000000001,121.719876
2017,CAGAYAN,III,AMULUNG,CALAMAGUI,CONCRETING OF CALAMAGUI FMR,COMPLETED,1,0.213,270,200,17.844861999999999,121.729645
2017,CAGAYAN,III,AMULUNG,SAN JUAN,CONCRETING OF SAN JUAN FMR,COMPLETED,1,0.345,50,100,17.786875999999999,121.656706
2017,CAGAYAN,III,ENRILE,LIWAN SUR-LIWAN NORTE,CONCRETING OF LIWAN SUR-LIWAN NORTE (PHASE III) FMR,COMPLETED,1,0.573,185,120,17.528518999999999,121.636984
2017,CAGAYAN,III,IGUIG,SANTIAGO,CONCRETING OF SANTIAGO FMR,COMPLETED,1,0.274,175,120,17.737397000000001,121.747546
2017,CAGAYAN,III,PEÑABLANCA,BUYUN,CONCRETING OF BUYUN FMR,COMPLETED,1,0.34,90,700,17.721838000000002,121.865629
2017,CAGAYAN,III,PEÑABLANCA,LAPI,CONCRETING OF LAPI FMR,COMPLETED,1,0.204,70,100,17.715696000000001,121.896683
2017,CAGAYAN,III,PEÑABLANCA,NABBABALAYAN,CONCRETING OF NABBABALAYAN FMR,COMPLETED,1,0.224,60,300,17.704122000000002,121.84439399999999
2017,CAGAYAN,III,SOLANA,ANDARAYAN NORTH-SOUTH,CONCRETING OF ANDARAYAN NORTH-SOUTH FMR,COMPLETED,1,0.255,100,75,17.684781000000001,121.722402
2017,CAGAYAN,III,SOLANA,BAUAN EAST,"CONCRETING OF SITIO IPIL, BAUAN EAST FMR",COMPLETED,1,0.593,350,200,17.721024,121.69164000000001
2017,CAGAYAN,III,SOLANA,MAGUIRIG,CONCRETING OF CAGAYAN BREEDING STATION ROAD NETWORK FMR,COMPLETED,1,0.515,25,50,17.656092000000001,121.647622
2017,CAGAYAN,III,SOLANA,PADUL,CONCRETING OF PADUL FMR,COMPLETED,1,0.252,170,120,17.636657,121.589777
2017,CAGAYAN,III,SOLANA,SAMPAGUITA,"CONCRETING OF DAMORTIS, SAMPAGUITA FMR",COMPLETED,1,0.523,230,140,17.682608999999999,121.603998
2017,CAGAYAN,III,TUGUEGARAO CITY,LARION BAJO,CONCRETING OF LARION BAJO FMR,COMPLETED,1,0.185,120,300,17.621335999999999,121.754076
2017,ISABELA,I,CABAGAN,BALASIG,"CONCRETING OF SITIO PAPAYA-SITIO DALENA, BALASIG FMR",COMPLETED,1,0.892,100,80,17.379270000000002,121.832549
2017,ISABELA,I,CABAGAN,SAN JUAN,CONCRETING OF SAN JUAN FMR,COMPLETED,1,0.882,200,100,17.408345000000001,121.744424
2017,ISABELA,I,CABAGAN,STO. TOMAS,CONCRETING OF SAN ANTONIO PROPER-BUBUG STO. TOMAS FMR,COMPLETED,1,1.955,300,150,17.399563000000001,121.705654
2017,ISABELA,I,CABAGAN,TALLAG,"CONCRETING OF SITIO DACQUE-SITIO AGGASIMUAN, TALLAG FMR",COMPLETED,1,0.7567,100,70,17.439886999999999,121.668316
2017,ISABELA,I,ILAGAN CITY,SAN FELIPE,CONCRETING OF CAGAYAN VALLEY RESEARCH CENTER ROAD NETWORK FMR,COMPLETED,1,0.854,60,35,17.132135999999999,121.887621
2017,ISABELA,I,STA. MARIA,POBLACION 2,CONCRETING OF POBLACION 2 FMR,COMPLETED,1,0.576,45,30,17.467414000000002,121.747635
2017,ISABELA,I,TUMAUINI,MOLDERO,CONCRETING OF MOLDERO FMR,COMPLETED,1,0.865,70,50,17.361559,121.79927000000001
2017,ISABELA,II,BENITO SOLIVEN,DAGUPAN,"CONCRETING OF PLACER, DAGUPAN FMR",COMPLETED,1,0.616,200,85,16.907211,121.93260100000001
2017,ISABELA,II,BENITO SOLIVEN,MALUNO SUR- NORTE,CONCRETING OF MALUNO SUR- NORTE FMR,COMPLETED,1,0.634,175,85,17.015055,121.961574
2017,ISABELA,II,BENITO SOLIVEN,SAN FRANCISCO,CONCRETING OF SAN FRANCISCO FMR,COMPLETED,1,0.536,150,80,16.938452000000002,121.98561100000001
2017,ISABELA,II,BURGOS,SAN MIGUEL -SANROQUE,CONCRETING OF SAN MIGUEL-CATABBAN (PHASE II) FMR,COMPLETED,1,0.405,190,105,17.046724999999999,121.75013800000001
2017,ISABELA,II,GAMU,BARCOLAN,CONCRETING OF BARCOLAN FMR,COMPLETED,1,0.266,130,60,17.064387,121.774852
2017,ISABELA,II,GAMU,MABINI- UNION,CONCRETING OF MABINI-UNION FMR,COMPLETED,1,1.155,150,85,17.091999999999999,121.73038
2017,ISABELA,II,GAMU,UPI,CONCRETING OF ISABELA EXPERIMENT STATIONROAD NETWORK FMR,COMPLETED,1,0.654,50,20,17.063224000000002,121.86603599999999
2017,ISABELA,II,NAGUILIAN,MINALLO & FLORES,CONCRETING OF MINALLO-FLORES FMR,COMPLETED,1,0.25,150,100,16.973627,121.85677800000001
2017,ISABELA,II,QUEZON,LEPANTO - CALLANGIGAN,CONCRETING OFLEPANTO - CALLANGIGAN FMR,COMPLETED,1,0.35,130,60,17.322005000000001,121.545604
2017,ISABELA,II,QUEZON,MANGGA,CONCRETING OF MANGGA FMR,COMPLETED,1,0.323,250,230,17.296468000000001,121.615357
2017,ISABELA,II,QUIRINO,MANAOAG,CONCRETING OF MANAOAG FMR,COMPLETED,1,0.249,230,85,17.17428,121.76667
2017,ISABELA,II,QUIRINO,RIZAL,CONCRETING OF RIZAL FMR,COMPLETED,1,0.281,50,45,17.136130000000001,121.672614
2017,ISABELA,II,ROXAS,SAN JOSE,CONCRETING OF SAN JOSE FMR,COMPLETED,1,0.399,150,70,17.106155000000001,121.66439699999999
2017,ISABELA,II,ROXAS,SAN PEDRO,CONCRETING OF SAN PEDRO FMR,COMPLETED,1,0.258,100,80,17.168040000000001,121.625173
2017,ISABELA,II,ROXAS,SAN PLACIDO,CONCRETING OF SAN PLACIDO PUROK 1-2 FMR,COMPLETED,1,0.734,150,100,17.140595999999999,121.59401200000001
2017,ISABELA,II,SAN MANUEL,MALALINTA,"CONCRETING OF SITIO VILLA CAYABAN,MALALINTA FMR",COMPLETED,1,0.25,100,60,16.978100000000001,121.567694
2017,ISABELA,II,SAN MANUEL,SANDIAT CENTRO,CONCRETING OF SANDIAT CENTRO FMR,COMPLETED,1,0.275,150,75,17.072385000000001,121.639239
2017,ISABELA,II,SAN MANUEL,VILLANUEVA & SAN FRANCISCO,CONCRETING OF VILLANUEVA- SAN FRANCISCO FMR,COMPLETED,1,0.259,150,75,17.061254000000002,121.618139
2017,ISABELA,II,SAN MARIANO,DARAGUTAN WEST-BALAGAN,CONCRETING OF DARAGUTAN WEST-BALAGAN ROAD SECTION FMR,COMPLETED,1,1.346,250,150,16.916810999999999,122.007087
2017,ISABELA,II,SAN MARIANO,OLD SAN MARIANO-SITIO CAUNAYAN,CONCRETING OF OLD SAN MARIANO-SITIO CAUNAYAN ROAD SECTION FMR,COMPLETED,1,1.206,180,120,17.022987000000001,122.025954
2017,ISABELA,III,ALICIA,BONIFACIO- BAGONG SIKAT,CONCRETING OF BONIFACIO- BAGONG SIKAT (PHASE I) FMR,COMPLETED,1,0.68,100,100,16.783608000000001,121.613646
2017,ISABELA,III,ALICIA,SALVACION-SAN PABLO,CONCRETING OF SALVACION-SAN PABLO FMR,COMPLETED,1,2.058,180,100,16.779236000000001,121.614448
2017,ISABELA,III,ANGADANAN,BUENAVISTA- VICTORY,CONCRETING OF BUENAVISTA- VICTORY FMR,COMPLETED,1,0.619,300,150,16.784690999999999,121.85818500000001
2017,ISABELA,III,ANGADANAN,RANG-AYAN,CONCRETING OF RANG-AYAN FMR,COMPLETED,1,1.468,285,170,16.924980000000001,121.61151
2017,ISABELA,III,ANGADANAN,RANG-AYAN- MANGANDINGAY,CONCRETING OF RANG-AYAN- MANGANDINGAY FMR,COMPLETED,1,0.726,300,480,16.793807999999999,121.855259
2017,ISABELA,III,CABATUAN,RANG-AY,CONCRETING OF RANG-AY FMR,COMPLETED,1,0.747,310,250,16.925007000000001,121.61151700000001
2017,ISABELA,III,SAN GUILLERMO,ANONANG & COLORADO & VILLA SANCHEZ & SAN FRANCISCO,CONCRETING OF ANONANG-COLORADO-VILLA SANCHEZ-SAN FRANCISCO FMR,COMPLETED,1,0.343,492,315,16.736789000000002,121.838173
2017,ISABELA,III,SAN MATEO,SAN IGNACIO,CONCRETING OF SAN IGNACIO FMR,COMPLETED,1,0.397,400,150,16.897362000000001,121.59132
2017,ISABELA,III,SAN MATEO,VICTORIA,CONCRETING OF VICTORIA FMR,COMPLETED,1,0.327,310,250,16.859376000000001,121.605665
2017,ISABELA,IV,CORDON,VILLA MARZO,CONCRETING OF VILLA MARZO FMR,COMPLETED,1,1.228,140,95,16.723994999999999,121.48771600000001
2017,ISABELA,IV,ECHAGUE,IPIL,CONCRETING OF IPIL FMR,COMPLETED,1,0.534,135,153,16.684086000000001,121.63652500000001
2017,ISABELA,IV,JONES,PALAGAO-ARUBUB,CONCRETING OF PALAGAO-ARUBUB FMR,COMPLETED,1,1.716,120,65,16.533508999999999,121.697891
2017,ISABELA,IV,RAMON,SAN MIGUEL-PLANAS,CONCRETING OF SAN MIGUEL-PLANAS FMR,COMPLETED,1,1.13,330,165,16.706983000000001,121.630456
2017,ISABELA,IV,SAN AGUSTIN,QUIMALABASA NORTE-SAN ANTONIO,CONCRETING OF QUIMALABASA NORTE-SAN ANTONIO FMR,COMPLETED,1,0.173,100,80,16.483515000000001,121.763919
2017,ISABELA,IV,SAN ISIDRO,QUEZON,CONCRETING OF QUEZON FMR,COMPLETED,1,0.542,100,65,16.706980000000001,121.63045200000001
2017,NUEVA VIZCAYA,LONE,ALFONSO CASTAÑEDA,GALINTUJA,CONCRETING OF GALINTUJA (PHASE II) FMR,COMPLETED,1,0.415,163,100,16.817668000000001,121.33395899999999
2017,NUEVA VIZCAYA,LONE,AMBAGUIO,CAMANDAG,IMPROVEMENT OF CAMANDAG FMR,COMPLETED,1,0.256,91,300,16.560210000000001,121.024237
2017,NUEVA VIZCAYA,LONE,AMBAGUIO,DULLI,CONCRETING OF CRITICAL ROAD SECTION ALONG HAMHAMAAN-GINAMGAMAN FMR,COMPLETED,1,0.239,20,400,16.547360999999999,121.071614
2017,NUEVA VIZCAYA,LONE,AMBAGUIO,SALINGSINGAN,CONSTRUCTION OF SITIO TEKENG- SITIO BATAG FMR,COMPLETED,1,0.274,160,300,16.556982999999999,121.019341
2017,NUEVA VIZCAYA,LONE,AMBAGUIO,TIBLAC,"IMPROVEMENT OF SITIO LABBI , TIBLAC FMR",COMPLETED,1,0.234,452,800,16.513953000000001,121.080423
2017,NUEVA VIZCAYA,LONE,ARITAO,BALITE,CONCRETING OF PUROK 2 BALITE FMR,COMPLETED,1,0.415,123,87,16.218101999999998,120.98330900000001
2017,NUEVA VIZCAYA,LONE,ARITAO,LATAR,CONCRETING OF LATAR FMR,COMPLETED,1,0.418,150,150,16.260439000000002,121.054565
2017,NUEVA VIZCAYA,LONE,BAGABAG,STA. LUCIA,"CONCRETING OF MORENO, STA. LUCIA FMR",COMPLETED,1,0.567,250,500,16.639177,121.254553
2017,NUEVA VIZCAYA,LONE,BAGABAG,VILLAROS,CONCRETING OF NUEVA VIZCAYA EXPERIMENT STATION ROAD NETWORK (PHASE III) FMR,COMPLETED,1,0.674,185,100,16.606638,121.291894
2017,NUEVA VIZCAYA,LONE,BAMBANG,ABINGANAN-VILLALUZ,CONCRETING OF ABINGANAN-VILLALUZ FMR,COMPLETED,1,0.2,121,107,16.420847999999999,121.13711600000001
2017,NUEVA VIZCAYA,LONE,BAMBANG,SALINAS,"CONCRETING OF SITIO SALECPAN, SALINAS FMR",COMPLETED,1,0.38,100,100,16.385363000000002,121.019244
2017,NUEVA VIZCAYA,LONE,BAMBANG,SAN ANTONIO SOUTH,CONCRETING OF SAN ANTONIO SOUTH FMR,COMPLETED,1,0.234,100,138,16.345039,121.10975500000001
2017,NUEVA VIZCAYA,LONE,BAMBANG,STO. DOMINGO,CONCRETING OF LOWER PUROK 4 STO. DOMINGO WEST FMR,COMPLETED,1,0.434,125,350,16.432863999999999,121.087892
2017,NUEVA VIZCAYA,LONE,BAYOMBONG,BUENA VISTA,CONCRETING OF KAKILINGAN BUENAVISTA FMR,COMPLETED,1,0.28,159,100,16.451588000000001,121.090176
2017,NUEVA VIZCAYA,LONE,BAYOMBONG,CABUAAN,CONCRETING OF PUROK 7 CABUAAN FMR,COMPLETED,1,0.36,13,200,16.546189999999999,121.112921
2017,NUEVA VIZCAYA,LONE,BAYOMBONG,PAITAN,CONCRETING OF PAITAN FMR,COMPLETED,1,0.2232,282,277,16.463968999999999,121.165243
2017,NUEVA VIZCAYA,LONE,DIADI,LURAD,CONCRETING OF LURAD (PHASE II) FMR,COMPLETED,1,0.4422,220,500,16.465281999999998,121.16365999999999
2017,NUEVA VIZCAYA,LONE,DIADI,VILLA AURORA,COCNRETING OF VILLA AURORA FMR,COMPLETED,1,0.224,100,200,16.609317999999998,121.35302299999999
2017,NUEVA VIZCAYA,LONE,DUPAX DEL NORTE,BELANCE,CONCRETING OF BELANCE HS FMR,COMPLETED,1,0.339,100,300,16.197008,121.23295400000001
2017,NUEVA VIZCAYA,LONE,DUPAX DEL NORTE,BINUANGAN - YABBI,CONCRETING OF BINUANGAN - YABBI FMR,COMPLETED,1,1.322,200,1500,16.189208000000001,121.26526699999999
2017,NUEVA VIZCAYA,LONE,DUPAX DEL NORTE,INEANGAN,CONCRETING OF DAHLIA ST. EXTENSION PUROK 6 INEANGAN FMR,COMPLETED,1,0.281,10,50,16.317346000000001,121.08749400000001
2017,NUEVA VIZCAYA,LONE,DUPAX DEL NORTE,MALASIN,"CONCRETING OF SITIO ANTING-SITIO MODEL, MALASIN FMR",COMPLETED,1,0.376,23,15,16.294243000000002,121.107574
2017,NUEVA VIZCAYA,LONE,DUPAX DEL NORTE,NAGAKAY- PAGASA,IMPROVEMENT OF NAGAKAY- PAGASA FMR,COMPLETED,1,0.387,66,120,16.209803000000001,121.267482
2017,NUEVA VIZCAYA,LONE,DUPAX DEL NORTE,PARAI,CONCRETING OF PARAI (PHASE II) FMR,COMPLETED,1,0.415,202,140,16.312031999999999,121.170463
2017,NUEVA VIZCAYA,LONE,KASIBU,CORDON,CONCRETING OF CORDON (PHASE II) FMR,COMPLETED,1,0.402,97,84,16.354441999999999,121.253428
2017,NUEVA VIZCAYA,LONE,KASIBU,NANTAWACAN,"CONCRETING OF UPPER BINGO, NANTAWACAN FMR",COMPLETED,1,0.378,60,100,16.305043999999999,121.200264
2017,NUEVA VIZCAYA,LONE,KAYAPA,BUYASYAS,CONCRETING OF BUYASYAS FMR,COMPLETED,1,0.4,55,300,16.259816000000001,120.958377
2017,NUEVA VIZCAYA,LONE,KAYAPA,NANSIAKAN,CONCRETING OF NANSIAKAN FMR,COMPLETED,1,0.418,150,200,16.449815000000001,121.031785
2017,NUEVA VIZCAYA,LONE,QUEZON,DAGUPAN,"CONCRETING OF SITIO BARAKO, DAGUPAN FMR",COMPLETED,1,0.25,110,250,16.540071999999999,121.347195
2017,NUEVA VIZCAYA,LONE,STA. FE,CANABUAN-LAWED-CAUCO,IMPROVEMENT OF CANABUAN-LAWED-CAUCO FMR,COMPLETED,1,0.405,81,100,16.147034999999999,121.07631600000001
2017,QUIRINO,LONE,AGLIPAY,DUNGO,CONCRETING OF QUIRINO EXPERIMENT STATION ROAD NETWORK (PHASE IV) FMR,COMPLETED,1,1.318,245,150,16.414042999999999,121.66898500000001
2017,QUIRINO,LONE,AGLIPAY,PALACIAN,IMPROVEMENT/CONCRETING OF PALACIAN FMR,COMPLETED,1,0.256,52,34,16.473462999999999,121.629953
2017,QUIRINO,LONE,AGLIPAY,PINARIPAD NORTE- DIODOL,CONSTRUCTION OF PINARIPAD NORTE- DIODOL FMR,COMPLETED,1,1,296,221,16.457629000000001,121.603925
2017,QUIRINO,LONE,CABARROGUIS,STO. DOMINGO,IMPROVEMENT/CONCRETING OF STO. DOMINGO FMR,COMPLETED,1,0.169,128,87,16.491410999999999,121.52937
2017,QUIRINO,LONE,DIFFUN,CAMPAMENTO,IMPROVEMENT/CONCRETING OF PUROK 4 CAMPAMENTO FMR,COMPLETED,1,0.12,350,300,16.544069,121.397165
2017,QUIRINO,LONE,DIFFUN,GULAC,IMPROVEMENT/CONCRETING OF GULAC FMR,COMPLETED,1,0.204,62,45,16.622349,121.534531
2017,QUIRINO,LONE,DIFFUN,SAN PASCUAL,IMPROVEMENT/CONCRETING OF SAN PASCUAL FMR,COMPLETED,1,0.18,140,98,16.533235999999999,121.464707
2017,QUIRINO,LONE,MADDELA,DIPINTIN,IMPROVEMENT/CONCRETING OF TABBA DIPINTIN FMR,COMPLETED,1,0.292,100,145,16.291495000000001,121.658671
2017,QUIRINO,LONE,MADDELA,DIVISORIA SUR,IMPROVEMENT/CONCRETING OF DIVISORIA SUR FMR,COMPLETED,1,0.22,155,117,16.368352999999999,121.721917
2017,QUIRINO,LONE,MADDELA,DUMABATO SUR,IMPROVEMENT/CONCRETING OF DUMABATO SUR WATERFALLS FMR,COMPLETED,1,0.274,385,309,16.338004999999999,121.652292
2017,QUIRINO,LONE,MADDELA,STA. MARIA,IMPROVEMENT/CONCRETING OF STA. MARIA FMR,COMPLETED,1,0.284,100,75,16.368590999999999,121.669464
2017,QUIRINO,LONE,MADDELA,VILLA NORTE,IMPROVEMENT/CONCRETING OF VILLA NORTE FMR,COMPLETED,1,0.25,120,110,16.368348000000001,121.681072
2017,QUIRINO,LONE,MADDELA,VILLA SUR,IMPROVEMENT/CONCRETING OF VILLA SUR FMR,COMPLETED,1,0.16,280,286,16.345731000000001,121.676039
2017,QUIRINO,LONE,NAGTIPUNAN,ANAK,IMPROVEMENT/CONCRETING OF ANAK FMR,COMPLETED,1,0.286,210,290,16.229617000000001,121.654033
2017,QUIRINO,LONE,NAGTIPUNAN,DIPANTAN,IMPROVEMENT/CONCRETING OF DIPANTAN FMR,COMPLETED,1,0.178,30,30,16.268401999999998,121.639222
2017,QUIRINO,LONE,NAGTIPUNAN,LANDINGAN,IMPROVEMENT/CONCRETING OF LANDINGAN FMR,COMPLETED,1,0.2,55,65,16.210156000000001,121.580191
2017,QUIRINO,LONE,SAGUDAY,LA PAZ,IMPROVEMENT/CONCRETING OF GABUYA ST. LA PAZ FMR,COMPLETED,1,0.24,350,250,16.582715,121.570427
2017,QUIRINO,LONE,SAGUDAY,STO. TOMAS,IMPROVEMENT/CONCRETING OF CATEINA ST. STO. TOMAS FMR,COMPLETED,1,0.208,400,320,16.555223999999999,121.611413
2017,QUIRINO,LONE,SAGUDAY,VILLA CARDENAS,IMPROVEMENT/CONCRETING OF PUROK 5 VILLA CARDENAS FMR,COMPLETED,1,0.19,380,220,16.554055000000002,121.545243
2018,BATANES,LONE,BASCO,"DISUNG- SANID, KAYCHANARIANAN","CONCRETING OF DISUNG- SANID, KAYCHANARIANAN FMR",COMPLETED,1,0.22,39,89,20.441929999999999,121.969494
2018,BATANES,LONE,ITBAYAT,MAYAN- KAYVUXUSAN- AXTAK,"CONCRETING OF MAYAN- KAYVUXUSAN- AXTAK, STA. MARIA FMR",COMPLETED,1,0.227,77,200,20.782616999999998,121.845691
2018,BATANES,LONE,ITBAYAT,STA. ROSA,"CONCRETING OF KE'KEB- SITIO CAPARIN , STA. ROSA FMR",TERMINATED,1,0.018,65,65,20.806688999999999,121.84092699999999
2018,BATANES,LONE,ITBAYAT,"TALIH-VARUGAN, RAELE","CONCRETING OF TALIH-VARUGAN, RAELE FMR",COMPLETED,1,0.341,52,70,20.734921,121.821456
2018,BATANES,LONE,UYUGAN,"GIDI- CHURUKURUN, ITBUD","CONCRETING OF GIDI- CHURUKURUN, ITBUD( PHASE II) FMR",COMPLETED,1,0.16,40,60,20.383203999999999,121.95376899999999
2018,CAGAYAN,I,ALCALA,BAYBAYOG,CONCRETING OF BAYBAYOG FMR,COMPLETED,1,0.492,161,23,17.881087000000001,121.703571
2018,CAGAYAN,I,BAGGAO,IMURUNG,IMPROVEMENT/CONCRETING OF IMURUNG FMR,COMPLETED,1,0.483,158,59,17.846824999999999,121.9024
2018,CAGAYAN,I,BAGGAO,SANTOR- HACIENDA INTAL,CONCRETING OF SANTOR- HACIENDA INTAL FMR,COMPLETED,1,0.506,110,30,17.89743,121.889443
2018,CAGAYAN,I,GONZAGA,CABANBANAN SUR- REBECCA,IMPROVEMENT/CONCRETING OF CABANBANAN SUR- REBECCA FMR,COMPLETED,1,0.369,80,95,18.243309,121.947543
2018,CAGAYAN,I,GONZAGA,FLUORISHING,"CONCRETING OF SITIO TABUNGAO, FLUORISHING FMR",COMPLETED,1,0.713,95,35,18.262074999999999,122.002764
2018,CAGAYAN,I,LAL-LO,FABRICA,CONCRETING OF FABRICA FMR,COMPLETED,1,0.376,235,160,18.203825999999999,121.645793
2018,CAGAYAN,I,LAL-LO,LOGAC,CONCRETING OF LOGAC FMR,COMPLETED,1,0.279,163,108,18.161276000000001,121.606104
2018,CAGAYAN,I,STA. TERESITA,LUGA,CONCRETING OF LUGA- SITIO CABARUAN- ALUCAO -LUGA FMR,COMPLETED,1,0.411,100,35,18.210087999999999,121.853734
2018,CAGAYAN,II,ABULUG,CALOG NORTE,CONCRETING OF CALOG NORTE FMR,COMPLETED,1,0.612,280,600,18.361941000000002,121.38238699999999
2018,CAGAYAN,II,ABULUG,CANAYUN,CONCRETING OF CANAYUN FMR,COMPLETED,1,0.62,180,600,18.397169000000002,121.42579000000001
2018,CAGAYAN,II,ABULUG,DANA-ILI,CONCRETING OF DANA-ILI FMR,COMPLETED,1,0.61,130,500,18.429950000000002,121.417449
2018,CAGAYAN,II,ABULUG,SAN JUALIAN,CONCRETING OF SAN JULIAN FMR,COMPLETED,1,0.735,570,400,18.442347000000002,121.39168100000001
2018,CAGAYAN,II,ABULUG,STO. TOMAS,CONCRETING OF STO. TOMAS FMR,COMPLETED,1,0.613,165,1160,18.432659999999998,121.424649
2018,CAGAYAN,II,BALLESTEROS,FUGU- PAYAGAN EAST,CONCRETING OF FUGU- PAYAGAN EAST FMR,COMPLETED,1,0.497,35,20,18.349557999999998,121.53565500000001
2018,CAGAYAN,II,PAMPLONA,CENTRO- CAPALALIAN,CONCRETING OF CENTRO- CAPALALIAN FMR,COMPLETED,1,0.27,95,95,18.478874000000001,121.33884399999999
2018,CAGAYAN,III,AMULUNG,ANNAFATAN-PALAYAG,CONCRETING OF ANNAFATAN-PALAYAG FMR,COMPLETED,1,0.315,162,28,17.809784000000001,121.663523
2018,CAGAYAN,III,ENRILE,DIVISORIA,"CONCRETING SITIO CANNAGAN, DIVISORIA FMR",COMPLETED,1,1.022,305,37,17.512691,121.74523499999999
2018,CAGAYAN,III,IGUIG,BACULUD-SAN ESTEBAN,CONCRETING OF BACULUD- SAN ESTEBAN FMR,COMPLETED,1,0.573,99,25,17.775096999999999,121.76049500000001
2018,CAGAYAN,III,PEÑABLANCA,BICAL,CONCRETING OF BICAL FMR,COMPLETED,1,0.51,90,18,17.570630999999999,121.829818
2018,CAGAYAN,III,SOLANA,IRAGA,"CONCRETING OF SITIO MASIN, IRAGA FMR",COMPLETED,1,0.55,289,34,17.708382,121.63659199999999
2018,ISABELA,I,CABAGAN,SAN JUAN- SAN ANTONIO GAP,CONCRETING OF SAN JUAN- SAN ANTONIO GAP FMR,COMPLETED,1,1.066,150,100,17.393575999999999,121.701216
2018,ISABELA,I,CABAGAN,UGAD PROPER-CALTEX,CONCRETING OF UGAD PROPER -CALTEX FMR,COMPLETED,1,0.638,60,50,17.439727000000001,121.775763
2018,ISABELA,I,DELFIN ALBANO,ANDARAYAN- SITIO LIMBO,"CONCRETING OF ANDARAYAN- SITIO LIMBO, SAN ISIDRO FMR",COMPLETED,1,0.696,250,100,17.288853,121.750637
2018,ISABELA,I,STA. MARIA,SAN ISIDRO EAST,CONCRETING OF SAN ISIDRO EAST FMR,COMPLETED,1,0.77,45,30,17.503474000000001,121.785839
2018,ISABELA,I,STO. TOMAS,SAN RAFAEL ABAJO,CONCRETING OF SAN RAFAEL FMR,COMPLETED,1,1.315,130,80,17.413782999999999,121.755296
2018,ISABELA,I,TUMAUINI,BANTUG,CONCREITNG OF BANTUG FMR,COMPLETED,1,0.883,40,25,17.263815000000001,121.87917899999999
2018,ISABELA,I,TUMAUINI,CAMASI,CONCRETING OF CAMASI FMR,COMPLETED,1,0.745,150,80,17.34197,121.89411200000001
2018,ISABELA,I,TUMAUINI,UGAD,CONCRETING OF UGAD FMR,COMPLETED,1,0.958,100,80,17.315916999999999,121.819991
2018,ISABELA,II,BENITO SOLIVEN,CAPUSERAN- ANDABUEN,CONCRETING OF CAPUSERAN- ANDABUEN FMR,COMPLETED,1,0.69,270,200,16.827653000000002,121.976686
2018,ISABELA,II,BENITO SOLIVEN,NACALMA,CONCRETING OF SITIO ZARAGOZA- NACALMA FMR,COMPLETED,1,0.496,250,200,16.841922,122.00530999999999
2018,ISABELA,II,BURGOS,SAN ANTONIO - MASIGUN,CONCRETING OF SAN ANTONIO - MASIGUN FMR,COMPLETED,1,0.618,235,63,17.087931999999999,121.694169
2018,ISABELA,II,GAMU,MABINI,CONCRETING OF MABINI- UNION PHASE 1 FMR,COMPLETED,1,0.648,150,85,17.099902,121.742745
2018,ISABELA,II,MALLIG,CASILI- SAN JOSE NORTE 1,CONCRETING OF CASILI- SAN JOSE NORTE1 FMR,COMPLETED,1,0.582,550,870,17.201757000000001,121.605408
2018,ISABELA,II,MALLIG,CENTRO 2,CONCRETING OF CENTRO 2 FMR,COMPLETED,1,1.2,250,300,17.217988999999999,121.61317
2018,ISABELA,II,MALLIG,VICTORIA- SAN JOSE SUR,CONCRETING OF VICTORIA- SAN JOSE SUR FMR,COMPLETED,1,0.561,650,750,17.194374,121.605868
2018,ISABELA,II,NAGUILIAN,"CABARUAN, MANARING",CONCRETING OF CABARUAN- MANARING FMR,COMPLETED,1,0.252,120,60,17.117363000000001,121.731252
2018,ISABELA,II,NAGUILIAN,RANG-AYAN- AGUINALDO,CONCRETING OF RANG-AYAN- AGUINALDO FMR,COMPLETED,1,0.586,130,150,16.944134999999999,121.904549
2018,ISABELA,II,NAGUILIAN,SAN MANUEL,CONCRETING OF SAN MANUEL FMR,COMPLETED,1,0.682,160,80,17.030298999999999,121.862617
2018,ISABELA,II,QUIRINO,SINAIT- CABARUAN,CONCRETING OF SINAIT- CABARUAN FMR,COMPLETED,1,0.665,200,100,17.117348,121.731247
2018,ISABELA,II,SAN MANUEL,MANANAO- MARARINGUE,CONCRETING OF MANANAO- MARARINGUE FMR,COMPLETED,1,0.796,400,200,17.010505999999999,121.606195
2018,ISABELA,II,SAN MARIANO,OLD SAN MARIANO - ZAMORAO,CONCRETING OF OLD SAN MARIANO - ZAMORA FMR,COMPLETED,1,0.623,60,100,16.999407999999999,121.993188
2018,ISABELA,III,ALICIA,DAGUPAN- STO. TOMAS,CONCRETING OF DAGUPAN- STO. TOMAS FMR,COMPLETED,1,2.408,200,80,16.781333,121.661688
2018,ISABELA,III,ANGADANAN,BANNAWAG- BONIFACIO,CONCRETING OF BANNAWAG- BONIFACIO FMR,COMPLETED,1,2.523,120,60,16.808135,121.881411
2018,ISABELA,III,ANGADANAN,BARANCUAG- VICTORIA,CONCRETING OF BARANCUAG- VICTORIA FMR,COMPLETED,1,0.74,220,160,16.748158,121.70294
2018,ISABELA,III,ANGADANAN,BONIFACIO,CONCRETING OF BONIFACIO FMR,COMPLETED,1,0.83,120,50,16.784943999999999,121.893125
2018,ISABELA,III,ANGADANAN,"DUROC DIPALUDA, BUENAVISTA","CONCRETING OF SITIO LUNAC- DUROC DIPALUDA, BUENAVISTA FMR",COMPLETED,1,1.084,200,100,16.777985999999999,121.812529
2018,ISABELA,III,ANGADANAN,LIWLIWA,CONCRETING OF LIWLIWA FMR,COMPLETED,1,1.78,120,100,16.773897000000002,121.88649100000001
2018,ISABELA,III,CABATUAN,RANG-AY,CONCRETING OF RANG-AY FMR,COMPLETED,1,0.508,152,75,16.932476000000001,121.62684900000001
2018,ISABELA,III,SAN GUILLERMO,SAN FRANCISCO NORTE- DIETBAN,CONCRETING OF SAN FRANCISCO NORTE- DIETBAN FMR,COMPLETED,1,0.507,120,60,16.740207999999999,121.903435
2018,ISABELA,III,SAN GUILLERMO,SINALUGAN-DINGADING,CONCRETING OF SINALUGAN-DINGADING FMR,COMPLETED,1,1.089,130,90,16.691358000000001,121.88358100000001
2018,ISABELA,III,SAN MATEO,SAN ANDRES,CONCRETING OF SAN ANDRES FMR,COMPLETED,1,0.328,60,50,16.900791999999999,121.613348
2018,ISABELA,III,SAN MATEO,SINAMAR NORTE- SAN MARCOS,CONCRETING OF SINAMAR NORTE- SAN MARCOS FMR,COMPLETED,1,0.587,400,150,16.856503,121.55007000000001
2018,ISABELA,IV,CORDON,CAPIRPIRWAN,"CONCRETING OF SITIO ESTAMPA, CAPIRPIRWAN FMR",COMPLETED,1,0.5,100,90,16.665555999999999,121.45155800000001
2018,ISABELA,IV,JONES,PAPAN ESTE- NAPALIONG,CONCRETING OF PAPAN ESTE- NAPALIONG FMR,COMPLETED,1,1,400,200,16.529343000000001,121.80863600000001
2018,ISABELA,IV,SAN AGUSTIN,MASAYA SUR-VIRGONEZA,CONCRETING OF MASAYA SUR-VIRGONEZA FMR,COMPLETED,1,0.5,100,90,16.479234999999999,121.753327
2018,ISABELA,IV,SAN AGUSTIN,SAN ANTONIO- STO. NIÑO,CONCRETING OF SAN ANTONIO- STO. NIÑO FMR,COMPLETED,1,0.2,200,100,16.476841,121.782934
2018,ISABELA,IV,SAN ISIDRO,QUEZON,CONCRETING OF QUEZON FMR,COMPLETED,1,0.7,250,150,16.706844,121.630595
2018,NUEVA VIZCAYA,LONE,ARITAO,KIRANG,CONCRETING OF KIRANG FMR,COMPLETED,1,0.741,119,100,16.268386,120.996906
2018,NUEVA VIZCAYA,LONE,BAMBANG,SAN ANTONIO- DULLAO,CONCRETING OF SAN ANTONIO- DULLAO FMR,COMPLETED,1,0.58,110,100,16.355415000000001,121.113473
2018,NUEVA VIZCAYA,LONE,BAYOMBONG,BANSING,CONCRETING OF BANSING FMR,COMPLETED,1,0.88,154,245,16.474938000000002,121.18702999999999
2018,NUEVA VIZCAYA,LONE,DIADI,ESCOTING,"CONCRETING OF SITIO LIMBO, ESCOTING FMR",COMPLETED,1,0.53,11,50,16.717504000000002,121.342152
2018,NUEVA VIZCAYA,LONE,DUPAX DEL SUR,CANABAY,CONCRETING OF CANABAY FMR,COMPLETED,1,0.745,100,315,16.235799,121.16023300000001
2018,NUEVA VIZCAYA,LONE,DUPAX DEL SUR,KINABUAN,CONCRETING OF KINABUAN FMR,COMPLETED,1,0.672,85,200,16.212916,121.191429
2018,NUEVA VIZCAYA,LONE,KASIBU,LOGPOND,"CONCRETING OF LOGPOND , KONGKONG FMR",COMPLETED,1,0.672,312,500,16.327494999999999,121.25350299999999
2018,NUEVA VIZCAYA,LONE,KASIBU,MUTA,CONCRETING OF MUTA FMR,COMPLETED,1,0.483,361,507,16.270154000000002,121.296858
2018,NUEVA VIZCAYA,LONE,KASIBU,PAO,CONCRETING OF PAO FMR,COMPLETED,1,0.469,312,280,16.238780999999999,121.35184
2018,NUEVA VIZCAYA,LONE,KAYAPA,BABADI,CONCRETING OF BABADI FMR,COMPLETED,1,0.52,120,200,16.235799,121.16023300000001
2018,NUEVA VIZCAYA,LONE,KAYAPA,PINAYAG,CONCRETING OF PINAYAG FMR,COMPLETED,1,0.628,103,180,16.410167999999999,120.98512100000001
2018,NUEVA VIZCAYA,LONE,SOLANO,BAGAHABAG,CONCRETING OF BAGAHABAG FMR,COMPLETED,1,0.56,160,250,16.507632000000001,121.19071599999999
2018,QUIRINO,LONE,AGLIPAY,DUNGO,CONCRETING OF QUIRINO EXPERIMENT STATION ROAD NETWORK FMR,COMPLETED,1,1.57,200,112,16.418854,121.671335
2018,QUIRINO,LONE,AGLIPAY,PALACIAN,CONCRETING OF PALACIAN FMR,COMPLETED,1,1.1,275,210,16.444655999999998,121.622778
2018,QUIRINO,LONE,AGLIPAY,PINARIPAD SUR,CONCRETING OF PINARIPAD SUR FMR,COMPLETED,1,1.08,142,75,16.461362000000001,121.608312
2018,QUIRINO,LONE,AGLIPAY,PROGRESO,CONCRETING OF PROGRESO FMR,COMPLETED,1,0.77,110,201,16.490054000000001,121.631592
2018,QUIRINO,LONE,AGLIPAY,VILLA SANTIAGO,CONCRETING OF VILLA SANTIAGO FMR,COMPLETED,1,1,132,87,16.407848999999999,121.640383
2018,QUIRINO,LONE,CABARROGUIS,DEL PILAR,CONCRETING OF DEL PILAR FMR,COMPLETED,1,0.9,157,93,16.478276000000001,121.53206299999999
2018,QUIRINO,LONE,CABARROGUIS,GUNDAWAY- RIZAL,CONCRETING OF GUNDAWAY - RIZAL FMR,COMPLETED,1,0.73,242,110,16.523910999999998,121.541792
2018,QUIRINO,LONE,CABARROGUIS,ZAMORA,CONCRETING O F ZAMORA FMR,COMPLETED,1,0.989,103,120,16.499490000000002,121.523619
2018,QUIRINO,LONE,DIFFUN,IFUGAO VILLAGE,CONCRETING OF IFUGAO VILLAGE FMR,COMPLETED,1,0.64,200,112,16.459932999999999,121.42509
2018,QUIRINO,LONE,DIFFUN,MACATE,CONCRETING OF MACATE FMR,COMPLETED,1,0.74,144,106,16.481453999999999,121.444221
2018,QUIRINO,LONE,DIFFUN,RAFAEL PALMA,CONCRETING OF RAFAEL PALMA FMR,COMPLETED,1,0.62,184,110,16.512902,121.421949
2018,QUIRINO,LONE,DIFFUN,SAN PASCUAL,CONCRETING OF SAN PASCUAL FMR,COMPLETED,1,0.72,194,178,16.533327,121.46777
2018,QUIRINO,LONE,MADDELA,ABBAG,CONCRETING OF ABBAG FMR,COMPLETED,1,1,153,72,16.272734,121.642526
2018,QUIRINO,LONE,MADDELA,BUENAVISTA,CONCRETING OF BUENAVISTA FMR,COMPLETED,1,1.36,132,95,16.332203,121.67584600000001
2018,QUIRINO,LONE,MADDELA,COFCAVILLE,CONCRETING OF COFCAVILLE FMR,COMPLETED,1,1.2,172,110,16.399387000000001,121.698042
2018,QUIRINO,LONE,MADDELA,DIPINTIN,CONCRETING OF DIPINTIN FMR,COMPLETED,1,1.04,193,124,16.288868999999998,121.67259900000001
2018,QUIRINO,LONE,MADDELA,DIVISORIA SUR,CONCRETING OF DIVISORIA SUR FMR,COMPLETED,1,1.17,120,84,16.375707999999999,121.71811599999999
2018,QUIRINO,LONE,MADDELA,PEDLISAN,CONCRETING OF PEDLISAN FMR,COMPLETED,1,1.21,163,82,16.310531999999998,121.647088
2018,QUIRINO,LONE,MADDELA,POBLACION SUR,CONCRETING OF POBLACION SUR FMR,COMPLETED,1,0.97,143,57,16.288779999999999,121.67117
2018,QUIRINO,LONE,NAGTIPUNAN,ANAK,CONCRETING OF ANAK FMR,COMPLETED,1,1.1,123,94,16.222749,121.660881
2019,BATANES,LONE,BASCO,"SITIO TUVA - SITIO RUDAW, SAN JOAQUIN","CONCRETING OF SITIO TUVA - SITIO RUDAW, SAN JOAQUIN FMR",COMPLETED,1,0.431,70,81,20.443625999999998,121.99216199999999
2019,BATANES,LONE,BASCO,"SITIO VAKAHAS - SITIO DIBTANGAN, SAN ANTONIO","CONCRETING OF SITIO VAKAHAS - SITIO DIBTANGAN,SAN ANTONIO FMR",COMPLETED,1,0.36,30,50,20.468388999999998,121.98405200000001
2019,BATANES,LONE,ITBAYAT,"SITIO ÑARAWATAN - SITIO PINVATAVATASAN,STA. ROSA","CONCRETING OF SITIO ÑARAWATAN - SITIO PINVATAVATASAN,STA. ROSA FMR",COMPLETED,1,0.438,45,85,20.812398000000002,121.860551
2019,BATANES,LONE,MAHATAO,"SITIO PAKARAYAN - SITIO TAÑUD - SITIO VUCHID, UVOY","CONCRETING OF SITIO PAKARAYAN - SITIO TAÑUD - SITIO VUCHID, UVOY FMR",COMPLETED,1,0.349,50,60,20.397036,121.958144
2019,BATANES,LONE,UYUGAN,"SITIO DIPTAN - SITIO SUMAKEB, KAYUGANAN","CONCRETING OF SITIO DIPTAN - SITIO SUMAKEB, KAYUGANAN FMR",COMPLETED,1,0.13,30,45,20.362099000000001,121.93651199999999
2019,CAGAYAN,I,APARRI,BULALA SUR,OPENING AND CONCRETING BULALA SUR FMR,COMPLETED,1,0.387,220,120,18.373358,121.568333
2019,CAGAYAN,I,BAGGAO,TALLANG,CONCRETING OF TALLANG FMR,COMPLETED,1,0.267,173,40,17.952784000000001,121.907871
2019,CAGAYAN,I,BAGGAO,"ZONE 2, MASICAL","CONCRETING OF ZONE 2,MASICAL FMR",COMPLETED,1,0.188,100,60,17.919347999999999,121.746887
2019,CAGAYAN,I,GATTARAN,STA. MARIA,CONCRETING OF STA. MARIA FMR,COMPLETED,1,0.335,130,63,18.029427999999999,121.63378899999999
2019,CAGAYAN,I,GATTARAN,"ZONE 6, CAPISSAYAN NORTE","CONCRETING OF ZONE 6, CAPISSAYAN NORTE FMR",COMPLETED,1,0.244,170,90,18.058260000000001,121.827376
2019,CAGAYAN,I,GONZAGA,"SITIO APAR, MAGRAFIL","CONCRETING OF SITIO APAR,MAGRAFIL FMR",COMPLETED,1,0.228,315,150,18.26793,122.081277
2019,CAGAYAN,I,LAL-LO,MAGAPIT,CONCRETING OF MAGAPIT FMR,COMPLETED,1,0.4,100,53,18.120324,121.69255800000001
2019,CAGAYAN,II,ABULUG,CALOG NORTE,CONCRETING OF CALOG NORTE PHASE III FMR,COMPLETED,1,0.53,135,75,18.35895,121.375229
2019,CAGAYAN,II,ABULUG,COLONY – LIBERTAD,CONCRETING OF COLONY – LIBERTAD FMR,COMPLETED,1,1.79,290,175,18.356182,121.42277
2019,CAGAYAN,II,ABULUG,SAN AGUSTIN,CONCRETING OF SAN AGUSTIN FMR,COMPLETED,1,0.042,100,48,18.357961,121.46116600000001
2019,CAGAYAN,II,ABULUG,SAN AGUSTIN - GUIDDAM,CONCRETING OF SAN AGUSTIN - GUIDDAM FMR PHASE III FMR,COMPLETED,1,0.417,160,60,18.354386999999999,121.467556
2019,CAGAYAN,II,ABULUG,SAN JULIAN,CONCRETING OF SAN JULIAN PHASE III FMR,COMPLETED,1,1.202,100,50,18.443393,121.39182599999999
2019,CAGAYAN,II,ABULUG,"SITIO CUBA, CALOG SUR","CONCRETING OF SITIO CUBA, CALOG SUR FMR",COMPLETED,1,1.39,250,1000,18.357679999999998,121.394317
2019,CAGAYAN,II,ABULUG,STA. FILOMENA,CONCRETING OF STA. FILOMENA PHASE II FMR,COMPLETED,1,0.561,152,88,18.414269999999998,121.469115
2019,CAGAYAN,II,BALLESTEROS,FUGU - PAYAGAN,CONCRETING OF FUGU - PAYAGAN FMR(,COMPLETED,1,0.468,100,45,18.341702999999999,121.549378
2019,CAGAYAN,II,LASAM,"PUROK 7, BATTALAN","CONCRETING OF PUROK 7, BATTALAN FMR",COMPLETED,1,0.37,157,52,18.080849000000001,121.56395000000001
2019,CAGAYAN,II,PIAT,APAYAO-ASIGA SWIP,CONCRETING OF APAYAO-ASIGA SWIP PHASE I FMR,COMPLETED,1,0.57,65,51,17.822410999999999,121.495638
2019,CAGAYAN,III,AMULUNG,"CASINGSINGAN NORTE - CARATACAT, AMULUNG",CONCRETING OF CASINGSINGAN NORTE - CARATACAT FMR,COMPLETED,1,0.743,34,40,17.788689000000002,121.635313
2019,CAGAYAN,III,AMULUNG,CORDOVA - NABBIALAN,CONCRETING OF CORDOVA - NABBIALAN FMR,COMPLETED,1,0.749,133,85,17.770287,121.649907
2019,CAGAYAN,III,ENRILE,LANNA,CONCRETING OF LANNA FMR,COMPLETED,1,0.419,78,43,17.571016,121.722956
2019,CAGAYAN,III,IGUIG,MALABBAC,CONCRETING OF MALABBAC FMR,COMPLETED,1,1.255,47,33,17.718465999999999,121.746826
2019,CAGAYAN,III,PEÑABLANCA,MINANGA,CONCRETING OF MINANGA FMR,COMPLETED,1,0.517,65,35,17.710539000000001,121.880652
2019,CAGAYAN,III,SOLANA,ANDARAYAN NORTH - ANDARAYAN SOUTH,CONCRETING OF ANDARAYAN NORTH - ANDARAYAN SOUTH FMR,COMPLETED,1,0.428,134,48,17.697149,121.717646
2019,CAGAYAN,III,SOLANA,"SITIO PARAISO, CARILUCUD","CONCRETING OF SITIO PARAISO, CARILUCUD FMR",COMPLETED,1,1.028,216,27,17.58699,121.584315
2019,CAGAYAN,III,TUAO,CULUNG - BICOK,CONCRETING OF CULUNG - BICOK FMR,COMPLETED,1,0.139,144,75,17.641200000000001,121.496073
2019,CAGAYAN,III,TUGUEGARAO CITY,"LARIBAR, LARION BAJO","CONCRETING OF LARIBAR, LARION BAJO FMR",COMPLETED,1,0.512,96,38,17.62754,121.75022300000001
2019,ISABELA,I,DELFIN ALBANO,SAN ANTONIO - CONCEPCION,CONCRETING OF SAN ANTONIO - CONCEPCION FMR,COMPLETED,1,0.491,800,200,17.272859,121.775993
2019,ISABELA,I,DELFIN ALBANO,"SAN ISIDRO - ANDARAYAN,",CONCRETING OF SAN ISIDRO - ANDARAYAN FMR,COMPLETED,1,0.597,220,110,17.278645000000001,121.749132
2019,ISABELA,I,MACONACON,FELY - APLAYA,CONCRETING OF FELY - APLAYA FMR,COMPLETED,1,0.425,50,40,17.411829000000001,122.23874600000001
2019,ISABELA,I,PALANAN,DIMASARI,CONCRETING OF DIMASARI FMR,COMPLETED,1,0.537,85,40,17.080545999999998,122.41568100000001
2019,ISABELA,I,STA. MARIA,CALAMAGUI WEST - LINGALING,CONCRETING OF CALAMAGUI WEST - LINGALING FMR,COMPLETED,1,0.691,180,100,17.500881,121.755858
2019,ISABELA,I,TUMAUINI,BANTUG,CONCRETING OF BANTUG FMR,COMPLETED,1,1.392,80,60,17.260361,121.890135
2019,ISABELA,I,TUMAUINI,CALIGAYAN,CONCRETING OF CALIGAYAN PHASE II FMR,COMPLETED,1,1.3,1140,1000,17.260438000000001,121.893401
2019,ISABELA,I,TUMAUINI,CUMABAO,CONCRETING OF CUMABAO FMR,COMPLETED,1,1.341,130,90,17.328809,121.88116100000001
2019,ISABELA,I,TUMAUINI,DY-ABRA,CONCRETING OF DY-ABRA FMR,COMPLETED,1,0.927,100,60,17.317869999999999,121.916511
2019,ISABELA,I,TUMAUINI,LIWANAG,CONCRETING OF LIWANAG FMR,COMPLETED,1,0.774,265,350,17.240639000000002,121.880032
2019,ISABELA,I,TUMAUINI,SAN VICENTE,CONCRETING OF SAN VICENTE FMR,COMPLETED,1,2.127,300,160,17.316171000000001,121.833074
2019,ISABELA,I,TUMAUINI,SISIM ALTO - BAYABO,CONCRETING OF SISIM ALTO - BAYABO FMR,COMPLETED,1,0.906,70,50,17.264847,121.85681200000001
2019,ISABELA,II,BENITO SOLIVEN,YEBAN NORTE,CONCRETING OF YEBAN NORTE FMR,COMPLETED,1,0.703,98,34,17.021927000000002,121.941407
2019,ISABELA,II,GAMU,LINGLINGAY,CONCRETING OF LINGLINGAY FMR,COMPLETED,1,0.671,60,40,17.054856999999998,121.808455
2019,ISABELA,II,NAGUILIAN,QUIRINO,CONCRETING OF QUIRINO FMR,COMPLETED,1,0.4,100,80,17.029547999999998,121.82715
2019,ISABELA,II,NAGUILIAN,ROXAS,CONCRETING OF ROXAS FMR,COMPLETED,1,0.607,105,85,17.029841999999999,121.83930700000001
2019,ISABELA,II,SAN MARIANO,STA. FILOMENA - MALABO,CONCRETING OF STA. FILOMENA - MALABO FMR,COMPLETED,1,0.607,50,30,16.98752,121.992859
2019,ISABELA,III,ALICIA,LINLINGAY - CALLAO,CONCRETING OF LINLINGAY - CALLAO FMR,COMPLETED,1,0.04,400,150,16.80753,121.690265
2019,ISABELA,III,ALICIA,SALVACION - STO. DOMINGO,CONCRETING OF SALVACION - STO. DOMINGO FMR,COMPLETED,1,0.541,400,120,16.834641000000001,121.653634
2019,ISABELA,III,ANGADANAN,BANNAWAG - CALAOCAN ROAD,CONCRETING OF BANNAWAG - CALAOCAN ROAD FMR,COMPLETED,1,1.116,250,160,16.798003000000001,121.903222
2019,ISABELA,III,ANGADANAN,RANG-AYAN - SARANAY,CONCRETING OF RANG-AYAN - SARANAY FMR,COMPLETED,1,1.263,140,80,16.793123000000001,121.878106
2019,ISABELA,III,ANGADANAN,SAN MARCELO - SAN ROQUE,CONCRETING OF SAN MARCELO - SAN ROQUE FMR,COMPLETED,1,4.21,750,200,16.783242000000001,121.836687
2019,ISABELA,III,ANGADANAN,SARANAY - MACANIAO,CONCRETING OF SARANAY - MACANIAO FMR,COMPLETED,1,1.957,150,80,16.805883000000001,121.87443500000001
2019,ISABELA,III,SAN GUILLERMO,SAN FRANCISCO NORTE - DIETBAN,CONCRETING OF SAN FRANCISCO NORTE - DIETBAN FMR,COMPLETED,1,0.338,150,80,16.740924,121.892781
2019,ISABELA,IV,JONES,BRGY. 2,CONCRETING OF BRGY. 2 FMR,COMPLETED,1,0.91,145,90,16.549524000000002,121.686733
2019,ISABELA,IV,JONES,DIBULUAN,CONCRETING OF DIBULUAN FMR,COMPLETED,1,0.84,160,100,16.519939000000001,121.781584
2019,ISABELA,IV,JONES,LINOMOT - STA. ISABEL,CONCRETING OF LINOMOT - STA. ISABEL FMR,COMPLETED,1,0.354,220,80,16.544312000000001,121.83533
2019,ISABELA,IV,RAMON,SAN MIGUEL - PLANAS,CONCRETING OF SAN MIGUEL - PLANAS FMR,COMPLETED,1,0.396,176,100,16.776686999999999,121.47832200000001
2019,ISABELA,IV,SAN AGUSTIN,MASAYA NORTE,CONCRETING OF MASAYA NORTE FMR,COMPLETED,1,0.468,100,80,16.51876,121.74644499999999
2019,ISABELA,IV,SAN AGUSTIN,MASAYA SUR - VIRGONEZA,CONCRETING OF MASAYA SUR - VIRGONEZA FMR,COMPLETED,1,0.396,250,120,16.466381999999999,121.761691
2019,ISABELA,IV,SAN ISIDRO,CEBU -RIZAL EAST,CONCRETING OF CEBU -RIZAL EAST FMR,COMPLETED,1,0.396,178,110,16.740736999999999,121.60894399999999
2019,ISABELA,IV,SANTIAGO CITY,BATAL,CONCRETING OF BATAL FMR,COMPLETED,1,1.26,215,120,16.705324999999998,121.590332
2019,NUEVA VIZCAYA,LONE,BAGABAG,"SISIM, VILLA COLOMA","CONCRETING OF SISIM, VILLA COLOMA FMR",COMPLETED,1,0.554,324,200,16.614080000000001,121.243307
2019,NUEVA VIZCAYA,LONE,BAMBANG,"SITIO SALICPAN, SALINAS","CONCRETING OF SITIO SALICPAN, SALINAS FMR PHASE II",COMPLETED,1,1,200,100,16.388780000000001,121.00702699999999
2019,NUEVA VIZCAYA,LONE,BAYOMBONG,"SITIO KAKILINGAN, BUENAVISTA","CONCRETING OF SITIO KAKILINGAN, BUENAVISTA FMR PHASE II",COMPLETED,1,0.5,159,100,16.451986999999999,121.087395
2019,NUEVA VIZCAYA,LONE,DUPAX DEL NORTE,MALASIN,CONCRETING OF MALASIN FMR,COMPLETED,1,0.943,272,235,16.301939999999998,121.116604
2019,NUEVA VIZCAYA,LONE,DUPAX DEL SUR,MANGGAYANG,CONCRETING OF MANGGAYANG FMR,COMPLETED,1,0.516,246,273,16.311378000000001,121.06771500000001
2019,NUEVA VIZCAYA,LONE,KAYAPA,BINALIAN,CONCRETING OF BINALIAN FMR,COMPLETED,1,0.6,150,150,16.389565000000001,120.94064899999999
2019,NUEVA VIZCAYA,LONE,KAYAPA,KAYAPA PROPER WEST,CONCRETING OF KAYAPA PROPER WEST FMR,COMPLETED,1,0.473,60,100,16.293291,120.849313
2019,NUEVA VIZCAYA,LONE,KAYAPA,LATBANG,CONCRETING OF LATBANG FMR,COMPLETED,1,0.553,160,160,16.466377000000001,120.981154
2019,NUEVA VIZCAYA,LONE,QUEZON,CALIAT,CONCRETING OF CALIAT FMR,COMPLETED,1,0.5,90,100,16.500768999999998,121.278308
2019,QUIRINO,LONE,CABARROGUIS,MANGANDINGAY,CONCRETING OF MANGANDINGAY FMR,COMPLETED,1,0.601,96,19,16.503888,121.547223
2019,QUIRINO,LONE,CABARROGUIS,VILLA PEÑA,CONCRETING OF VILLA PEÑA FMR,COMPLETED,1,0.44,185,35,16.465149,121.523704
2019,QUIRINO,LONE,DIFFUN,AURORA WEST,CONCRETING OF AURORA WEST FMR,COMPLETED,1,0.501,142,29,16.587118,121.497078
2019,QUIRINO,LONE,DIFFUN,IFUGAO VILLAGE,CONCRETING OF IFUGAO VILLAGE FMR,COMPLETED,1,0.435,162,86,16.4577381,121.42650999999999
2019,QUIRINO,LONE,SAGUDAY,LAPAZ - SALVACION,CONCRETING OF LAPAZ - SALVACION FMR,COMPLETED,1,0.583,208,170,16.571327,121.571507
2020,BATANES,LONE,ITBAYAT,LIPTAN- KARWARWAY,CONCRETING OF LIPTAN- KARWARWAY FMR,COMPLETED,1,0.443,90,40,20.771210279999998,121.84588528
2020,BATANES,LONE,IVANA,MAYSOHO- ISNAHAYAN,CONCRETING OF MAYSOHO- ISNAHAYAN FMR,COMPLETED,1,0.525,144,100,20.37239361,121.92415944
2020,BATANES,LONE,SABTANG,ARAHEM - CHANGKANGEN,CONCRETING OF ARAHEM - CHANGKANGEN FMR,COMPLETED,1,0.337,47,95,20.318788999999999,121.861339
2020,CAGAYAN,I,APARRI,BACKILING,CONCRETING OF BACKILING  FMR,COMPLETED,1,0.5536,95,23,18.283715000000001,121.584458
2020,CAGAYAN,I,CAMALANIUGAN,TAGUM,CONCRETING OF TAGUM FMR,COMPLETED,1,0.9375,685,57,18.264326000000001,121.749559
2020,CAGAYAN,I,GATTARAN, SIDEM -  TALIGAN,CONCRETING OF SIDEM -  TALIGAN FMR,COMPLETED,1,0.273,150,100,18.057983,121.68900600000001
2020,CAGAYAN,II,ABULUG,SAN JULIAN -STO. TOMAS -. DANA-ILI -SIRIT -. CANAYUN - SIMAYUNG,CONCRETING OF SAN JULIAN -STO. TOMAS -. DANA-ILI -SIRIT -. CANAYUN - SIMAYUNG FMR,COMPLETED,1,0.44,280,250,18.427866999999999,121.423563
2020,CAGAYAN,II,BALLESTEROS,"CALAPAWAN, SAN JUAN","CONCRETING OF CALAPAWAN, SAN JUAN FMR",COMPLETED,1,0.501,130,85,18.279983000000001,121.499481
2020,CAGAYAN,II,BALLESTEROS,MABURIL- CABULUAN,CONCRETING OF MABURIL- CABULUAN FMR,COMPLETED,1,1,120,95,18.373199,121.474109
2020,CAGAYAN,II,BALLESTEROS,"MABUTTAL, BARAN","CONCRETING OF MABUTTAL, BARAN FMR",COMPLETED,1,0.97,140,85,18.369765000000001,121.49730099999999
2020,CAGAYAN,II,BALLESTEROS,"MABUTTAL, PAYAGAN WEST","CONCRETING OF MABUTTAL, PAYAGAN WEST FMR",COMPLETED,1,0.8487,180,96,18.376344,121.52955
2020,CAGAYAN,II,BALLESTEROS,NARARAGAN VALLEY,CONCRETING OF NARARAGAN VALLEY FMR,COMPLETED,1,1.14,83,75,18.314146000000001,121.499093
2020,CAGAYAN,II,CLAVERIA,BUENAVISTA - MAGDALENA,CONCRETING OF BUENAVISTA - MAGDALENA FMR,COMPLETED,1,0.89,110,85,18.584454999999998,121.137184
2020,CAGAYAN,II,CLAVERIA,CONCRETING OF BILIBIGAO -KILKILING,CONCRETING OF BILIBIGAO -KILKILING FMR,COMPLETED,1,0.89,120,100,18.575303000000002,121.08256900000001
2020,CAGAYAN,II,CLAVERIA,KILKILING,CONCRETING OF KILKILING FMR,COMPLETED,1,0.68,130,120,18.572624999999999,121.059056
2020,CAGAYAN,II,LASAM,CABATACAN EAST,CONCRETING OF CABATACAN EAST FMR,COMPLETED,1,0.815,105,95,18.080065000000001,121.490562
2020,CAGAYAN,II,LASAM,CABATACAN WEST,CONCRETING OF CABATACAN WEST FMR,COMPLETED,1,0.534,85,100,18.082985000000001,121.49120972
2020,CAGAYAN,II,LASAM,CALLAO NORTE,CONCRETING OF CALLAO NORTE FMR,COMPLETED,1,0.776,95,120,18.084156,121.634686
2020,CAGAYAN,II,LASAM,FINUGO NORTE,CONCRETING OF. FINUGO NORTE FMR,COMPLETED,1,0.99,100,110,18.079689999999999,121.621612
2020,CAGAYAN,II,PAMPLONA,BALINGIT,CONCRETING OF BALINGIT FMR,COMPLETED,1,0.865,180,200,18.517318,121.276212
2020,CAGAYAN,II,PAMPLONA,CURVA,CONCRETING OF CURVA FMR,COMPLETED,1,1.09,120,100,18.376348,121.379549
2020,CAGAYAN,II,PAMPLONA,TUPANNA,CONCRETING OF TUPANNA FMR,COMPLETED,1,1.487,62,50,18.470348999999999,121.389053
2020,CAGAYAN,II,PIAT,GUMARUENG,CONCRETING OF GUMARUENG FMR,COMPLETED,1,1.2873,150,70,17.779664,121.455894
2020,CAGAYAN,III,AMULUNG,MAROBBOB-DADDA,CONCRETING OF MAROBBOB-DADDA FMR,COMPLETED,1,6.5,123,82,17.816372000000001,121.756513
2020,CAGAYAN,III,ENRILE,BATU  ENRILE,CONCRETING OF BATU FMR,COMPLETED,1,0.534,118,118,17.544028999999998,121.701669
2020,CAGAYAN,III,ENRILE,BATU- ROMA NORTE,CONCRETING OF BATU- ROMA NORTE FMR,COMPLETED,1,0.665,196,20,17.526125,121.69776
2020,CAGAYAN,III,IGUIG,CAMPO- MANAOAG,CONCRETING OF CAMPO- MANAOAG FMR,COMPLETED,1,0.712,94,63,17.754161,121.75555300000001
2020,ISABELA,I,CABAGAN,TALLAG,CONCRETING OF TALLAG FMR,COMPLETED,1,0.65,100,120,17.434380000000001,121.667
2020,ISABELA,I,ILAGAN CITY,ALINGUIGAN 1ST,CONCRETING OF ALINGUIGAN 1ST FMR,COMPLETED,1,1.133,50,40,17.131264000000002,121.92604799999999
2020,ISABELA,I,ILAGAN CITY,CABISERA 14 -16  - BATONG-LABANG,CONCRETING OF CABISERA 14 -16  - BATONG-LABANG FMR,COMPLETED,1,1.404,95,130,17.119527999999999,122.00039599999999
2020,ISABELA,I,STO. TOMAS,SAN RAFAEL ABAJO,CONCRETING OF SAN RAFAEL ABAJO (PHASE II) FMR,COMPLETED,1,1.449,163,86,17.408899999999999,121.763592
2020,ISABELA,II,BENITO SOLIVEN,MALUNO NORTE,CONCRETING OF MALUNO NORTE FMR,COMPLETED,1,1.792,175,85,17.015165,121.97052499999999
2020,ISABELA,II,NAGUILIAN,BAGONG SIKAT,CONCRETING OF BAGONG SIKAT FMR,COMPLETED,1,1.165,350,89,16.87876,121.92032500000001
2020,ISABELA,II,SAN MARIANO,MINANGA,CONCRETING OF MINANGA FMR,COMPLETED,1,1.471,100,95,16.988116000000002,122.03999
2020,ISABELA,III,ALICIA,RIZALUNA - RAMONA,CONCRETING OF RIZALUNA - RAMONA FMR,COMPLETED,1,0.768,250,250,16.831714999999999,121.755144
2020,ISABELA,III,ALICIA,SAN FERNANDO,CONCRETING OF SAN FERNANDO FMR,COMPLETED,1,1.1668,100,85,16.785758000000001,121.717557
2020,ISABELA,III,CABATUAN,LAPAZ,CONCRETING OF LAPAZ FMR,COMPLETED,1,1.539,310,110,16.915030999999999,121.690573
2020,ISABELA,III,SAN MATEO,MALASIN- SALINUNGAN WEST,CONCRETING OF MALASIN- SALINUNGAN WEST FMR,COMPLETED,1,0.8993,170,100,16.880327999999999,121.60712700000001
2020,ISABELA,IV,CORDON,TUROD SUR MALAPAT- CADAANAN,CONCRETING OF TUROD SUR MALAPAT- CADAANAN FMR,COMPLETED,1,1.04,350,100,16.670183000000002,121.508702
2020,ISABELA,IV,JONES,DIVINAN (PHASE I),CONCRETING OF DIVINAN (PHASE I) FMR,COMPLETED,1,1.04,105,70,16.538087000000001,121.649857
2020,ISABELA,IV,SANTIAGO CITY,"OBRA STREET -QUIRAT ROAD, RIZAL","CONCRETING OF OBRA STREET -QUIRAT ROAD, RIZAL FMR",COMPLETED,1,0.832,276,150,16.720141999999999,121.556631
2020,ISABELA,V,AURORA,STA. RITA - NAMPICUAN,CONCRETING OF STA. RITA - NAMPICUAN FMR,COMPLETED,1,1.343,700,700,17.008586999999999,121.644929
2020,ISABELA,V,ROXAS,QUILING - DOÑA CONCHA,CONCRETING OF QUILING - DOÑA CONCHA FMR,COMPLETED,1,1.034,270,120,17.143664999999999,121.652935
2020,ISABELA,V,ROXAS,SAN JOSE,CONCRETING OF SAN JOSE FMR,COMPLETED,1,1.266,95,95,17.094823000000002,121.661822
2020,ISABELA,VI,ECHAGUE,BABARAN,CONCRETING OF BABARAN FMR,COMPLETED,1,0.71,160,80,16.701943,121.732617
2020,ISABELA,VI,ECHAGUE,LIBERTAD - STA. ANA,CONCRETING OF LIBERTAD - STA. ANA FMR,COMPLETED,1,0.71,180,300,16.635306,121.61451099999999
2020,ISABELA,VI,ECHAGUE,MABBAYAD - BENGUET,CONCRETING OF MABBAYAD - BENGUET FMR,COMPLETED,1,0.833,164,90,16.643063000000001,121.868926
2020,ISABELA,VI,ECHAGUE,MABBAYAD- SAN MIGUEL,CONCRETING OF MABBAYAD- SAN MIGUEL FMR,COMPLETED,1,1.04,205,130,16.649128999999999,121.86761199999999
2020,ISABELA,VI,SAN ISIDRO,RAMOS EAST,CONCRETING OF RAMOS EAST FMR,COMPLETED,1,0.832,70,50,16.693239999999999,121.613776
2020,NUEVA VIZCAYA,LONE,BAGABAG,BAKIR - STA. LUCIA,CONCRETING TO BAKIR - STA. LUCIA FMR,COMPLETED,1,0.665,102,100,16.644127000000001,121.231098
2020,NUEVA VIZCAYA,LONE,BAGABAG,BARETBET - POGONSINO,CONCRETING OF BARETBET - POGONSINO FMR,COMPLETED,1,0.555,110,100,16.581576999999999,121.259997
2020,NUEVA VIZCAYA,LONE,BAGABAG,GANNIB - CAREB,CONCRETING OF GANNIB - CAREB FMR,COMPLETED,1,0.96,136,250,16.589863000000001,121.217534
2020,NUEVA VIZCAYA,LONE,BAGABAG,SITIO CALUTLUTAN - LANTAP,CONCRETING OF SITIO CALUTLUTAN - LANTAP FMR,COMPLETED,1,0.44,150,200,16.618328999999999,121.232316
2020,NUEVA VIZCAYA,LONE,BAGABAG,VILLARINA  -. STA. LUCIA,CONCRETING OF  VILLARINA  -. STA. LUCIA FMR,COMPLETED,1,0.92,109,150,16.624972,121.252751
2020,NUEVA VIZCAYA,LONE,DUPAX DEL NORTE,YABBI,CONCRETING OF YABBI FMR,COMPLETED,1,0.714,202,250,16.160375999999999,121.32336100000001
2020,NUEVA VIZCAYA,LONE,DUPAX DEL SUR,CENTRO KIMBUTAN,CONCRETING OF CENTRO KIMBUTAN FMR,COMPLETED,1,0.827,300,450,16.126847000000001,121.21360300000001
2020,NUEVA VIZCAYA,LONE,KAYAPA,PINAYAG,CONCRETING OF PINAYAG FMR,COMPLETED,1,0.665,130,100,16.420116,120.99753800000001
2020,NUEVA VIZCAYA,LONE,QUEZON,AURORA,CONCRETING OF AURORA FMR,COMPLETED,1,1.05,230,436,16.500142,121.25269299999999
2020,NUEVA VIZCAYA,LONE,VILLAVERDE,CABULUAN,CONRETING OF CABULUAN FMR,COMPLETED,1,0.8255,100,55,16.581909,121.141818
2020,QUIRINO,LONE,CABARROGUIS,VILLAMOR,CONCRETING OF VILLAMOR FMR,COMPLETED,1,1.154,153,43,16.495843000000001,121.519166
2020,QUIRINO,LONE,DIFFUN,BALAGBAG,CONCRETING OF BALAGBAG FMR,COMPLETED,1,0.93,245,52,16.545584000000002,121.53308699999999
2020,QUIRINO,LONE,DIFFUN,RIZAL,CONCRETING OF RIZAL FMR,COMPLETED,1,0.68,100,85,16.604023000000002,121.518343
2020,QUIRINO,LONE,MADDELA,DUMABATO,CONCRETING OF DUMABATO FMR,COMPLETED,1,1.0305,35,35,16.347781000000001,121.665594
2020,QUIRINO,LONE,MADDELA,VILLA GRACIA,CONCRETING OF VILLA GRACIA FMR,COMPLETED,1,1.072,260,98,16.309822,121.73957
2021,BATANES,LONE,BASCO,DIWAN- DIURA PHASE III,CONCRETING OF DIWAN- DIURA PHASE III FMR,COMPLETED,1,0.365,63,150,20.438782,121.982266
2021,CAGAYAN,I,APARRI,PADDAYA,CONCRETING OF PADDAYA FMR,COMPLETED,1,0.64,362,162,18.316126000000001,121.736279
2021,CAGAYAN,I,BAGGAO,CARUPIAN,CONCRETING OF CARUPIAN FMR,COMPLETED,1,0.963,85,80,17.966564999999999,121.76537500000001
2021,CAGAYAN,I,GATTARAN,SITIO RISSIK- MABUNO,CONCRETING OF SITIO RISSIK- MABUNO FMR,COMPLETED,1,0.868,245,103,18.060677999999999,121.895746
2021,CAGAYAN,I,GONZAGA,FLOURISHING,CONCRETING OF FLOURISHING FMR,COMPLETED,1,0.41,74,150,18.258575,122.00474199999999
2021,CAGAYAN,I,STA. ANA,SITIO LUBAC- SAN VICENTE,CONCRETING OF SITIO LUBAC- SAN VICENTE FMR,COMPLETED,1,0.636,65,30,18.502175999999999,122.21983
2021,CAGAYAN,II,ABULUG,"CUBA, CALOG SUR","CONCRETING OF CUBA, CALOG SUR FMR",COMPLETED,1,0.81,118,100,18.358034,121.39328399999999
2021,CAGAYAN,II,ABULUG,DANA-ILI,CONCRETING OF DANA-ILI FMR,COMPLETED,1,1.269,136,125,18.431160999999999,121.412014
2021,CAGAYAN,II,ABULUG,DANA-ILI-SAN JULIAN,CONCRETING OF DANA- ILI -SAN JULIAN FMR,COMPLETED,1,2.496,280,250,18.440612999999999,121.398332
2021,CAGAYAN,II,ABULUG,GUIDDAM,CONCRETING OF GUIDDAM FMR,COMPLETED,1,2.337,283,250,18.316409,121.45811399999999
2021,CAGAYAN,II,ABULUG,STA. FILOMENA,CONCRETING OF STA. FILOMENA FMR,COMPLETED,1,0.504,182,150,18.419502999999999,121.460849
2021,CAGAYAN,II,ABULUG,STA. ROSA,CONCRETING OF STA. ROSA FMR,COMPLETED,1,1.9,165,150,18.396909999999998,121.439904
2021,CAGAYAN,II,ALLACAPAN,ALLIG VALLEY,CONCRETING OF ALLIG VALLEY FMR,COMPLETED,1,1.443,390,350,18.218727999999999,121.503839
2021,CAGAYAN,II,BALLESTEROS,MABUTTAL- BARAN,CONCRETING OF MABUTTAL- BARAN FMR,COMPLETED,1,1.28,140,85,18.377064000000001,121.48554300000001
2021,CAGAYAN,II,CLAVERIA,PATA EAST,CONCRETING OF PATA EAST FMR,COMPLETED,1,0.86,57,50,18.607150000000001,121.14881099999999
2021,CAGAYAN,II,CLAVERIA,PATA WEST,CONCRETING OF PATA WEST FMR,COMPLETED,1,1.054,68,65,18.609658,121.137097
2021,CAGAYAN,II,CLAVERIA,STO. NIÑO,CONCRETING OF STO. NIÑO FMR,COMPLETED,1,0.795,55,50,18.548580999999999,121.114047
2021,CAGAYAN,II,CLAVERIA,STO. NIÑO - MALILITAO,CONCRETING OF STO. NIÑO - MALILITAO FMR,COMPLETED,1,0.847,160,180,18.56231,121.113451
2021,CAGAYAN,II,CLAVERIA,UNION,CONCRETING OF UNION FMR,COMPLETED,1,0.6,130,110,18.557964999999999,121.056574
2021,CAGAYAN,II,LASAM,FINUGO NORTE,CONCRETING OF  FINUGO NORTE FMR,COMPLETED,1,1.531,71,60,18.086466000000001,121.632805
2021,CAGAYAN,II,LASAM,MINANGA SUR,CONCRETING OF MINANGA SUR FMR,COMPLETED,1,1.4,80,75,18.094450999999999,121.64359399999999
2021,CAGAYAN,II,LASAM,SITIO KAIGOROTAN-CABATACAN WEST,CONCRETING OF SITIO KAIGOROTAN-CABATACAN WEST FMR,COMPLETED,1,1.956,170,160,18.082944999999999,121.491219
2021,CAGAYAN,II,PAMPLONA,CURVA,CONCRETING OF CURVA FMR,COMPLETED,1,0.648,120,100,18.396820000000002,121.383202
2021,CAGAYAN,II,PAMPLONA,STA. CRUZ,CONCRETING OF STA. CRUZ FMR,COMPLETED,1,0.625,132,150,18.407955999999999,121.378292
2021,CAGAYAN,II,SANCHEZ  MIRA,LANGGAGAN-PATAGA-BACSAY,CONCRETING OF LANGGAGAN-PATAGA-BACSAY FMR,COMPLETED,1,1.395,142,120,18.544827999999999,121.239034
2021,CAGAYAN,III,AMULUNG,AGGUIRIT,CONCRETING OF AGGUIRIT  FMR,COMPLETED,1,1.27,90,85,17.765286,121.68445199999999
2021,CAGAYAN,III,ENRILE,LIWAN SUR,CONCRETING OF  LIWAN SUR FMR,COMPLETED,1,1,122,220,17.505604000000002,121.645884
2021,CAGAYAN,III,SOLANA,IRAGA- MALALAM-MALACABIBI,CONCRETING OF IRAGA- MALALAM-MALACABIBI FMR,COMPLETED,1,2.228,1235,823,17.737636999999999,121.674162
2021,ISABELA,I,SAN PABLO,SITIO MAGAMIAN,CONCRETING OF SITIO MAGAMIAN FMR,COMPLETED,1,1.418,255,100,17.413171999999999,121.888411
2021,ISABELA,I,SAN PABLO,"SITIO NAGBARAKALAN- MT. HAMUT, SIMANU NORTE","CONCRETING OF SITIO NAGBARAKALAN- MT. HAMUT, SIMANU NORTE FMR",COMPLETED,1,0.7,200,600,17.506547000000001,121.84437
2021,ISABELA,I,STA. MARIA,NAGANACAN PHASE I,CONCRETING OF NAGANACAN PHASE I FMR,COMPLETED,1,1.652,70,50,17.44351,121.698261
2021,ISABELA,I,STO. TOMAS,SAN RAFAEL ALTO,CONCRETING OF SAN RAFAEL ALTO FMR,COMPLETED,1,1.263,65,100,17.399356000000001,121.753213
2021,ISABELA,I,TUMAUINI,CUMABAO,CONSTRUCTUION/CONCRETING OF CUMABAO FMR,COMPLETED,1,1.191,300,300,17.300471999999999,121.895695
2021,ISABELA,I,TUMAUINI,LAPOGAN- STO. NIÑO,CONCRETING OF LAPOGAN- STO. NIÑO FMR,COMPLETED,1,1.319,200,200,17.222785999999999,121.848769
2021,ISABELA,I,TUMAUINI,LIWANANG PHASE II,CONCRETING OF LIWANANG PHASE II FMR,COMPLETED,1,1.38,250,250,17.230518,121.87284699999999
2021,ISABELA,I,TUMAUINI,NAMNAMA- ANTAGAN 2ND,CONCRETING OF NAMNAMA- ANTAGAN 2ND FMR,COMPLETED,1,0.754,200,250,17.284551,121.880599
2021,ISABELA,I,TUMAUINI,SISIM ABAJO,CONCRETING OF SISIM ABAJO FMR,COMPLETED,1,0.7755,136,80,17.274006,121.83630100000001
2021,ISABELA,II,BENITO SOLIVEN,VILLA LUZ- NEW MAGSAYSAY,CONCRETING OF VILLA LUZ- NEW MAGSAYSAY FMR,COMPLETED,1,0.896,180,85,16.906101,121.956487
2021,ISABELA,II,NAGUILIAN,QUINALABASA- MANARING,CONCRETING OF QUINALABASA- MANARING FMR,COMPLETED,1,1.24,250,250,16.921523000000001,121.881953
2021,ISABELA,II,NAGUILIAN,STO. TOMAS,CONCRETING OF STO. TOMAS FMR,COMPLETED,1,1.311,430,500,16.920135999999999,121.911492
2021,ISABELA,II,REINA MERCEDES,DANGAN PHASE II,CONCRETING OF DANGAN  FMR,COMPLETED,1,1.412,412,500,16.998737999999999,121.76001100000001
2021,ISABELA,II,REINA MERCEDES,SANTOR,CONCRETING OF SANTOR FMR,COMPLETED,1,1.101,250,500,16.993480999999999,121.730971
2021,ISABELA,II,SAN MARIANO,BITABIAN- DARAGUTAN WEST,CONCRETING OF BITABIAN- DARAGUTAN WEST FMR,COMPLETED,1,1.779,100,180,16.943275,121.996263
2021,ISABELA,II,SAN MARIANO,DARAGUTAN EAST - UEG,CONCRETING OF DARAGUTAN EAST - UEG FMR,COMPLETED,1,1.488,159,90,16.900144999999998,122.029616
2021,ISABELA,II,SAN MARIANO,TAPPA,CONCRETING OF TAPPA FMR,COMPLETED,1,0.766,80,60,16.771034,122.020177
2021,ISABELA,III,ALICIA,SAN PABLO- SALVACION,CONCRETING OF  SAN PABLO- SALVACION FMR,COMPLETED,1,1.317,212,250,16.804566000000001,121.66067099999999
2021,ISABELA,III,ANGADANAN,DIPALUDA-DUROC-LOURDES,CONCRETING OF DIPALUDA-DUROC-LOURDES FMR,COMPLETED,1,2.71,700,350,16.780737999999999,121.790482
2021,ISABELA,III,ANGADANAN,SAN MARCELO- SAN ROQUE,CONCRETING OF SAN MARCELO- SAN ROQUE FMR,COMPLETED,1,1.545,150,100,16.791819,121.830423
2021,ISABELA,III,RAMON,SAN MIGUEL - PLANAS,CONCRETING OF SAN MIGUEL - PLANAS FMR,COMPLETED,1,0.942,90,250,16.783852,121.468227
2021,ISABELA,IV,CORDON,CAQUILINGAN,CONCRETING OF CAQUILINGAN FMR,COMPLETED,1,0.99,115,250,16.646564000000001,121.422836
2021,ISABELA,IV,JONES,DIVINAN PHASE I,CONCRETING OF DIVINAN PHASE I FMR,COMPLETED,1,0.99,66,50,16.539711,121.64268800000001
2021,ISABELA,IV,JONES,STA. ISABEL- DICAMAY,CONCRETING OF STA. ISABEL- DICAMAY FMR,COMPLETED,1,0.9,388,46,16.543524999999999,121.863851
2021,ISABELA,IV,SANTIAGO CITY,"TABLADA ST. INTERIOR VALLEJO, NABUAN","CONCRETING OF  TABLADA ST. INTERIOR VALLEJO, NABUAN FMR",COMPLETED,1,0.99,80,50,16.654820999999998,121.57751500000001
2021,ISABELA,V,LUNA,HARANA,CONCRETING OF HARANA FMR,COMPLETED,1,1.308,459,500,16.933236000000001,121.713112
2021,ISABELA,V,MALLIG,"CENTRO 1, SAN RAMON","CONCRETING OF CENTRO 1, SAN RAMON  FMR",COMPLETED,1,1.092,356,150,17.216812999999998,121.600752
2021,ISABELA,V,QUEZON,BARUCBOC,CONCRETING OF BARUCBOC FMR,COMPLETED,1,1.045,80,60,17.252127999999999,121.604315
2021,ISABELA,V,SAN MANUEL,MALALINTA,CONCRETING OF MALALINTA FMR,COMPLETED,1,0.837,300,300,16.995100999999998,121.594116
2021,ISABELA,VI,CAUAYAN CITY,LABINAB,CONCRETING OF LABINAB FMR,COMPLETED,1,0.86,100,100,16.925090000000001,121.77883799999999
2021,ISABELA,VI,CAUAYAN CITY,ROGUS,CONCRETING OF ROGUS FMR,COMPLETED,1,0.86,500,500,16.802295999999998,121.948719
2021,ISABELA,VI,SAN ISIDRO,PATANAD-VILLAFLOR,CONCRETING OF PATANAD-VILLAFLOR FMR,COMPLETED,1,0.99,250,250,16.758579000000001,121.648072
2021,ISABELA,VI,SAN ISIDRO,RIZAL WEST-CEBU,CONCRETING OF RIZAL WEST-CEBU  FMR,COMPLETED,1,0.99,285,300,16.762218000000001,121.590546
2021,NUEVA VIZCAYA,LONE,ARITAO,OCAO-CAPINIAAN,CONCRETING OF OCAO-CAPINIAAN  FMR,COMPLETED,1,0.79,100,100,16.213792000000002,121.002025
2021,NUEVA VIZCAYA,LONE,BAMBANG,MABUSLO,CONCRETING OF MABUSLO FMR,COMPLETED,1,0.705,75,140,16.403994300000001,121.177852
2021,NUEVA VIZCAYA,LONE,BAMBANG,"PUROK 5, ABIAN","CONCRETING OF PUROK 5, ABIAN FMR",COMPLETED,1,0.975,100,180,16.442086,121.138611
2021,NUEVA VIZCAYA,LONE,BAMBANG,SAN ANTONIO- DULLAO,CONCRETING OF SAN ANTONIO- DULLAO FMR,COMPLETED,1,0.866,160,160,16.360378000000001,121.117936
2021,NUEVA VIZCAYA,LONE,BAYOMBONG,BANSING,CONCRETING OF BANSING FMR,COMPLETED,1,0.72,80,100,16.463975000000001,121.184485
2021,NUEVA VIZCAYA,LONE,BAYOMBONG,IPIL-CUNEG,CONCRETING OF IPIL-CUNEG FMR,COMPLETED,1,0.64,95,145,16.523765999999998,121.092354
2021,NUEVA VIZCAYA,LONE,DIADI,DURUAROG,CONCRETING OF DURUAROG FMR,COMPLETED,1,0.876,200,200,16.623498999999999,121.380844
2021,NUEVA VIZCAYA,LONE,DUPAX DEL NORTE,BELANCE,CONCRETING OF BELANCE FMR,COMPLETED,1,0.769,81,100,16.201775000000001,121.258616
2021,NUEVA VIZCAYA,LONE,DUPAX DEL NORTE,BINUANGAN,CONCRETING OF  BINUANGAN FMR,COMPLETED,1,0.527,105,100,16.185072999999999,121.27650300000001
2021,NUEVA VIZCAYA,LONE,DUPAX DEL NORTE,MACABENGA,CONCRETING OF MACABENGA FMR,COMPLETED,1,1.012,75,85,16.21603,121.248001
2021,NUEVA VIZCAYA,LONE,DUPAX DEL SUR,CAROLOTAN,CONCRETING OF CAROLOTAN FMR,COMPLETED,1,0.492,430,10,16.207124,121.149973
2021,NUEVA VIZCAYA,LONE,KASIBU,DIDIPIO,CONCRETING OF DIDIPIO FMR,COMPLETED,1,0.552,100,300,16.339812999999999,121.444029
2021,NUEVA VIZCAYA,LONE,KASIBU,SIGUEM,CONCRETING OF SIGUEM FMR,COMPLETED,1,0.88,105,150,16.283747999999999,121.32378199999999
2021,NUEVA VIZCAYA,LONE,KASIBU,"SITIO CAMPO BATU, ANTUTOT","CONCRETING OF SITIO CAMPO BATU, ANTUTOT FMR",COMPLETED,1,0.7575,95,120,16.402100000000001,121.21143600000001
2021,NUEVA VIZCAYA,LONE,KAYAPA,CABANGLASAN,CONCRETING OF CABANGLASAN FMR,COMPLETED,1,0.7365,122,75,16.351194,120.931138
2021,QUIRINO,LONE,AGLIPAY,ALICIA,CONCRETING OF ALICIA FMR,COMPLETED,1,1.294,180,150,16.343389999999999,121.53235100000001
2021,QUIRINO,LONE,CABARROGUIS,TUCOD,CONCRETING OF TUCOD FMR,COMPLETED,1,1.886,215,108,16.392011,121.454977
2021,QUIRINO,LONE,DIFFUN,RIZAL -VILLA PASCUAL,CONCRETING OF RIZAL- VILLA PASCUAL FMR,COMPLETED,1,1.059,270,500,16.609186000000001,121.54332100000001
2022,BATANES,LONE,BASCO,"PAYIN -KUGKUG -  TUKON ,CHANARIAN","CONCRETING OF SITIO PAYIN TYO BRGY. KUGKUG TO BRGY. TUKON , BRGY. CHANARIAN FMR, BASCO , BATANES",COMPLETED,1,0.318,60,120,20.4315,121.9628
2022,CAGAYAN,I,BAGGAO,SITIO SINGAYEN BRGY. ASSAS,"CONCRETING OF SITIO SINGAYEN, BRGY. ASSASI FMR, BAGGAO, CAGAYAN",COMPLETED,1,0.543,200,120,17.905733000000001,121.78070099999999
2022,CAGAYAN,II,ABULUG,CALOG SUR- LIBERTAD,"CONCRETING OF BRGY. CALOG SUR TO BRGY. LIBERTAD FMR, ABULUG, CAGAYAN",COMPLETED,1,2.685,387,350,18.371279000000001,121.41651899999999
2022,CAGAYAN,II,ABULUG,GUIDDAM - SAN AGUSTIN,"CONCRETING OF BRGY. GUIDDAM TO BRGY. SAN AGUSTIN FMR, ABULUG, CAGAYAN",COMPLETED,1,1.538,347,340,18.388680999999998,121.470923
2022,CAGAYAN,II,ABULUG,SAN JULIAN,"CONCRETING OF BRGY. SAN JULIAN FMR,ABULUG, CAGAYAN",COMPLETED,1,2.82,201,200,18.450206999999999,121.388639
2022,CAGAYAN,II,BALLESTEROS,FUGU- SITIO CABBAGGAOAN,"CONCRETING OF BRGY. FUGU TO SITIO CABAGGAOAN FMR,BALLESTEROS, CAGAYAN",COMPLETED,1,2.395,252,250,18.307873000000001,121.51391599999999
2022,CAGAYAN,II,BALLESTEROS,SAN JUAN - BRGY. CALAPAWAN,"CONCRETING OF BRGY. SAN JUAN TO SITIO CALAPAWAN FMR,BALLESTEROS, CAGAYAN",ONGOING CONSTRUCTION,1,1.285,263,200,18.282160999999999,121.493495
2022,CAGAYAN,II,BALLESTEROS,SITIO NANABUAN -  BRGY. ZITANGA,"CONCRETING OF SITIO NANABUAN TO BRGY. ZITANGA FMR,BALLESTEROS, CAGAYAN",COMPLETED,1,1.857,184,100,18.356828,121.49972200000001
2022,CAGAYAN,II,CLAVERIA,BUENAVISTA- MAGDALENA,"CONCRETING OF BRGY. BUENAVISTA TO BRGY. MAGDALENA FMR, CLAVERIA, CAGAYAN",COMPLETED,1,1.056,57,50,18.593809,121.153716
2022,CAGAYAN,II,LASAM,NICOLAS AGATEP- BRGY. MALINTA,"CONCRETING OF BRGY. NICOLAS AGATEP TO BRGY. MALINTA FMR, LASAM, CAGAYAN",COMPLETED,1,2.165,104,100,18.078468000000001,121.607778
2022,CAGAYAN,II,LASAM,VIGA,"CONCRETING OF BRGY. VIGA FMR, LASAM, CAGAYAN",COMPLETED,1,1.978,325,300,18.041848000000002,121.56939199999999
2022,CAGAYAN,III,AMULUNG,BRGY. CENTRO CALAMAGUI,"CONCRETING OF BRGY. CENTRO CALAMAGUI FMR, AMULUNG, CAGAYAN",ONGOING CONSTRUCTION,1,0.84,695,1000,17.834209999999999,121.731268
2022,CAGAYAN,III,ENRILE,BRGY. LIWAN NORTE,"CONCRETING OF BRGY. LIWAN NORTE FMR, ENRILE, CAGAYAN",COMPLETED,1,0.562,106,110,17.538595000000001,121.63413300000001
2022,CAGAYAN,III,SOLANA,IRAGA- MALACABIBI,"CONCRETING OF BRGY. IRAGA TO BRGY. MALACABIBI FMR, SOLANA, CAGAYAN",COMPLETED,1,0.733,169,21,17.727149000000001,121.670929
2022,ISABELA,I,ILAGAN CITY,CVIARC  BRGY. SAN FELIPE,"CONCRETING OF CVIARC, BRGY. SAN FELIPE FMR, ILAGAN CITY, ISABELA",COMPLETED,1,2.22,55,50,17.129024999999999,121887493
2022,ISABELA,I,ILAGAN CITY,STA. VICTORIA-BRGY. PASA,"CONCRETING OF BRGY. STA. VICTORIA TO BRGY. PASA FMR, ILAGAN CITY, ISABELA",COMPLETED,1,0.998,250,200,17.170179999999998,121.955212
2022,ISABELA,I,TUMAUINI,BANTUG,"CONCRETING OF BRGY. BANTUG FMR, TUMAUINI, ISABELA",COMPLETED,1,1.274,125,150,17.259426999999999,121.870932
2022,ISABELA,I,TUMAUINI,LANNA,"CONCRETING OF BRGY. LANNA FMR, TUMAUINI, ISABELA",COMPLETED,1,1.375,129,200,17.318594000000001,121.812832
2022,ISABELA,I,TUMAUINI,NAMNAMA-ANTAGAN 2ND PHASE II,"CONCRETING OF BRGY. NAMNAMA- TO BRGY. ANTAGAN 2ND PHASE II FMR, TUMAUINI, ISABELA",COMPLETED,1,1.16,182,250,17.284554,121.8806
2022,ISABELA,I,TUMAUINI,PILITAN,"CONCRETING OF BRGY. PILITAN FMR, TUMAUINI, ISABELA",COMPLETED,1,0.94,103,500,17.249686000000001,121.82443000000001
2022,ISABELA,I,TUMAUINI,SAN PEDRO,"CONCRETING OF BRGY. SAN PEDRO FMR, TUMAUINI, ISABELA",COMPLETED,1,0.986,117,250,17.280028000000001,121.819625
2022,ISABELA,I,TUMAUINI,UGAD,"CONCRETING OF BRGY. UGAD FMR, TUMAUINI, ISABELA",COMPLETED,1,1.185,201,300,17.310813,121.81175500000001
2022,ISABELA,II,NAGUILIAN,MINALLO,"CONCRETING OF BRGY. MINALLO FMR, NAGUILIAN, ISABELA",COMPLETED,1,1.227,300,300,16.985054999999999,121.85610699999999
2022,ISABELA,II,SAN MARIANO,CADSALAN- BRGY. TAPPA,"CONCRETING OF BRGY. CADSALAN TO BRGY. TAPPA FMR, SAN MARIANO, ISABELA",COMPLETED,1,1.0815,100,80,16.789878000000002,122.02161599999999
2022,ISABELA,II,SAN MARIANO,DICAMAY,"CONCRETING OF BRGY. DICAMAY FMR, SAN MARIANO, ISABELA",COMPLETED,1,0.939,798,800,16.766717,121.984836
2022,ISABELA,II,SAN MARIANO,"SITIO DINGADING-CUARAUITAN,BRGY. BINATUG","CONCRETING OF SITIO DINGADING TO CUARAUITAN, BRGY. BINATUG FMR, SAN MARIANO, ISABELA",COMPLETED,1,1.2065,120,80,16.949708000000001,122.082474
2022,ISABELA,III,CABATUAN,NUEVA ERA,"CONCRETING OF BRGY. NUEVA ERA FMR, CABATUAN, ISABELA",COMPLETED,1,0.6413,145,77,16.926036,121.65058999999999
2022,ISABELA,IV,CORDON,"SITIO CAMANGAAN-SITIO BUNEG, BRGY. ANONANG","CONCRETING OF SITIO CAMANGAAN TO SITIO BUNEG, BRGY. ANONANG FMR, CORDON, ISABELA",COMPLETED,1,0.992,100,50,16.667555,121.412638
2022,ISABELA,IV,SANTIAGO CITY,NAGGASICAN SOUTH LOW CANAL ROAD,"CONCRETING OF NAGGASICAN SOUTH LOW CANAL ROAD FMR, SANTIAGO CITY, ISABELA",COMPLETED,1,0.826,60,50,16.674996,121.596805
2022,ISABELA,V,MALLIG,SAN PEDRO,"CONCRETING OF BRGY. SAN PEDRO FMR, MALLIG, ISABELA",COMPLETED,1,1.285,85,21,17.237755,121.61487200000001
2022,ISABELA,VI,CAUAYAN CITY,NAGCAMPEGAN-BRGY. SAN LUISISABELA,"CONCRETING OF BRGY. NAGCAMPEGAN TO BRGY. SAN LUIS FMR, CAUAYAN CITY, ISABELA",COMPLETED,1,0.989,212,180,16.971782000000001,121.804354
2022,ISABELA,VI,CAUAYAN CITY,ROGUS,"CONCRETING OF BRGY. ROGUS FMR, CAUAYAN CITY, ISABELA",COMPLETED,1,0.861,500,500,16.796923,121.952302
2022,ISABELA,VI,ECHAGUE,BABARAN PHASE II,"CONCRETING OF BRGY. BABARAN PHASE II FMR,ECHAGUE, ISABELA",COMPLETED,1,0.878,260,185,16.701944000000001,121.73261599999999
2022,NUEVA VIZCAYA,LONE,BAMBANG,DINILE -CALAOCAN,"CONCRETING OF DINILE TO BRGY. CALAOCAN FMR, BAMBANG, NUEVA VIZCAYA",COMPLETED,1,0.477,220,150,16.393128000000001,121.11511
2022,NUEVA VIZCAYA,LONE,BAMBANG,SAN FERNANDO TO BRGY. ABINGANAN,"CONCRETING OF BRGY. SAN FERNANDO TO BRGY. ABINGANAN FMR, BAMBANG, NUEVA VIZCAYA",COMPLETED,1,0.895,125,120,16.401413000000002,121.130939
2022,NUEVA VIZCAYA,LONE,BAMBANG,STO. DOMINGO WES,"CONCRETING OF BRGY. STO. DOMINGO WEST FMR, BAMBANG, NUEVA VIZCAYA",COMPLETED,1,0.7185,125,350,16.433795,121.078785
2022,NUEVA VIZCAYA,LONE,BAYOMBONG,MAGAPUY,"CONCRETING OF BRGY. MAGAPUY FMR, BAYOMBONG, NUEVA VIZCAYA",COMPLETED,1,0.8805,208,120,16.444165999999999,121.142864
2022,NUEVA VIZCAYA,LONE,KASIBU,WATWAT,"CONCRETING OF BRGY. WATWAT FMR, KASIBU, NUEVA VIZCAYA",COMPLETED,1,0.382,105,200,16.339690000000001,121.27947
2022,NUEVA VIZCAYA,LONE,SOLANO,COMMUNAL,"CONCRETING OF BRGY. COMMUNAL FMR, SOLANO, NUEVA VIZCAYA",COMPLETED,1,0.603,270,450,16.569047999999999,121.10723299999999
2022,QUIRINO,LONE, DIFFUN,SAN PASCUAL,"CONCRETING OF BRGY. SAN PASCUAL FMR, DIFFUN, QUIRINO",COMPLETED,1,0.986,128,127,16.530708000000001,121.465987
2022,QUIRINO,LONE, DIFFUN,SITIO AMILINGAN BRGY. SAN ISIDRO,"REHABILITATION/IMPROVEMENT OF SITIO AMILINGAN, BRGY. SAN ISIDRO FMR, DIFFUN, QUIRINO",COMPLETED,1,0.889,112,200,16.627815999999999,121.50951999999999
2022,QUIRINO,LONE,CABARROGUIS,BRGY. ZAMORA,"REHABILITATION/IMPROVEMENT OF BRGY. ZAMORA FMR, CABARROGUIS, QUIRINO",COMPLETED,1,0.884,163,180,16.509249000000001,121.533894
2022,QUIRINO,LONE,CABARROGUIS,MANGANDINGAY PHASE 2,"CONCRETING OF BRGY. MANGANDINGAY PHASE II FMR, CABARROGUIS, QUIRINO",COMPLETED,1,0.692,122,250,16.511641000000001,121.54136800000001
2022,QUIRINO,LONE,CABARROGUIS,MANGANDINGAY- STO. DOMINGO,"CONSTRUCTION/IMPROVEMENT OF BRGY. MANGANDINGAY- BRGY. STO. DOMINGO FMR, CABARROGUIS, QUIRINO",COMPLETED,1,0.987,178,115,16.503775000000001,121.546637
2022,QUIRINO,LONE,CABARROGUIS,UPPER DIBIBI,"CONSTRUCTION/IMPROVEMENT OF BRGY. UPPER DIBIBI FMR, CABARROGUIS, QUIRINO",COMPLETED,1,1.167,205,103,16.416412999999999,121.51319599999999
2022,QUIRINO,LONE,MADDELA,SAN SALVADOR,"CONSTRUCTION/IMPROVEMENT OF BRGY. SAN SALVADOR FMR, MADDELA, QUIRINO",COMPLETED,1,0.946,89,16,16.412391,121.681507
2023,BATANES,LONE,BASCO,"CHAVUAN-DISAN, SAN ANTONIO","CONCRETING OF CHAVUAN-DISAN FMR, SAN ANTONIO, BASCO, BATANES",ONGOING CONSTRUCTION,1,0.4,82,90,20.455712250000001,121.96646067
2023,BATANES,LONE,MAHATAO,"SUVEK, KAUMBAKAN","CONCRETING OF SUVEK FMR,KAUMBAKAN, MAHATAO, BATANES",ONGOING CONSTRUCTION,1,0.3,68,90,20.41323444,121.95132167
2023,BATANES,LONE,UYUGAN,"CHINGTEB-BABAL, IMNAJBU","CONCRETING OF CHINGTEB-BABAL FMR PHASE II, IMNAJBU,UYUYGAN, BATANES",ONGOING CONSTRUCTION,1,0.54,69,70,20.383447,121.97042500000001
2023,CAGAYAN,I,ALCALA,PIGGATAN,"CONCRETING OF PIGGATAN FMR, ALCALA, CAGAYAN",COMPLETED,1,0.867,143,140,17.96059,121.662091
2023,CAGAYAN,I,APARRI,NAVAGAN,"CONCRETING OF NAVAGAN FMR, APARRI, CAGAYAN",ONGOING CONSTRUCTION,1,0.48,155,78,18.352798,121.553003
2023,CAGAYAN,I,BAGGAO,SAN MIGUEL,"CONCRETING OF SAN MIGUEL FMR, BAGGAO, CAGAYAN",COMPLETED,1,0.794,207,200,17.841533999999999,121.915632
2023,CAGAYAN,I,GATTARAN,GANZANO,"CONCRETING OF GANZANO FMR, GATTARAN, CAGAYAN",COMPLETED,1,0.858,249,240,18.028747500000001,121.64525055999999
2023,CAGAYAN,I,GATTARAN,TAGUMAY- PALAGAO SUR,"CONCRETING OF TAGUMAY- PALAGAO SUR FMR,GATTARAN, CAGAYAN",COMPLETED,1,0.71,227,200,18.036021000000002,121.702975
2023,CAGAYAN,II,ABULUG,GUIDDAM,"CONCRETING OF GUIDDAM FMR, ABULUG, CAGAYAN",COMPLETED,1,1.073,213,200,18.348573999999999,121.47733700000001
2023,CAGAYAN,II,ABULUG,"INNER CUBA,SITIO CUBA, BRGY. CALOG SUR- BRGY. SIMAYUNG","CONCETING OF INNER CUBA,SITIO CUBA, BRGY. CALOG SUR- BRGY. SIMAYUNG FMR, ABULUG, CAGAYAN",COMPLETED,1,0.72,151,151,18.364463059999999,121.39424222
2023,CAGAYAN,II,ABULUG,SAN AGUSTIN,"CONCRETING OF SAN AGUSTIN FMR, ABULUG, CAGAYAN",COMPLETED,1,0.94,153,200,18.367642,121.46287
2023,CAGAYAN,II,ABULUG,SAN JULIAN,"CONCRETING OF SAN JULIAN FMR, ABULUG, CAGAYAN",COMPLETED,1,0.426,429,390,18.430717999999999,121.421712
2023,CAGAYAN,II,ABULUG,SANTA ROSA,"CONCRETING OF SANTA ROSA FMR, ABULUG, CAGAYAN",COMPLETED,1,1.04,64,60,18.371416,121.44858000000001
2023,CAGAYAN,II,ABULUG,SANTO TOMAS,"CONCRETING OF SANTO TOMAS FMR, ABULUG, CAGAYAN",COMPLETED,1,1.07,115,110,18.434059000000001,121.424774
2023,CAGAYAN,II,BALLESTEROS,SAN JUAN-CALAPPAWAN,"CONCRETING OF SAN JUAN- CALAPPAWAN FMR, BALLESTEROS, CAGAYAN",COMPLETED,1,0.38,485,480,18.278213300000001,121.51204472000001
2023,CAGAYAN,II,BALLESTEROS,SITIO NANABUAN-ZITANGA,"CONCRETING OF SITIO NANABUAN- ZITANGA FMR BALLESTEROS, CAGAYAN",COMPLETED,1,0.593,120,120,18.372198999999998,121.49686699999999
2023,CAGAYAN,II,CLAVERIA,BACSAY CATARAOAN NORTE- BACSAY CATARAOAN SUR,"CONCRETING OF BACSAY CATARAOAN NORTE- BACSAY CATARAOAN SUR FMR, CLAVERIA, CAGAYAN",ONGOING CONSTRUCTION,1,0.808,101,100,18.569509,121.074808
2023,CAGAYAN,II,CLAVERIA,CADCADIR WEST,"CONCRETING OF CADCADIR WEST FMR, CLAVERIA, CAGAYAN",COMPLETED,1,0.886,56,55,18.544794,121.02268599999999
2023,CAGAYAN,II,CLAVERIA,DIBALIO,"CONCRETING OF DIBALIO FMR, CLAVERIA, CAGAYAN",COMPLETED,1,0.48,151,120,18.600812999999999,121.09554300000001
2023,CAGAYAN,II,CLAVERIA,KILKILING,"CONCRETING OF KILKILING FMR, CLAVERIA, CAGAYAN",ONGOING CONSTRUCTION,1,0.594,62,60,18.585773,121.06174300000001
2023,CAGAYAN,II,CLAVERIA,LUZON,"CONCRETING OF LUZON FMR, CLAVERIA, CAGAYAN",COMPLETED,1,0.272,185,150,18.548404000000001,121.121391
2023,CAGAYAN,II,CLAVERIA,MALILITAO- MAPULA-PULA,"CONCRETING OF MALILITAO- MAPULA-PULA FMR, CLAVERIA, CAGAYAN",COMPLETED,1,0.952,125,110,18.573091000000002,121.119355
2023,CAGAYAN,II,CLAVERIA,PATA EAST,"CONCRETING OF PATA EAST FMR, CLAVERIA, CAGAYAN",COMPLETED,1,0.48,64,55,18.607092000000002,121.148786
2023,CAGAYAN,II,CLAVERIA,"SITIO KAPAN-AWAN, PATA WEST","CONCRETING OF SITIO KAPAN-AWAN, PATA WEST FMR, CLAVERIA, CAGAYAN",COMPLETED,1,0.72,97,90,18.609943999999999,121.138209
2023,CAGAYAN,II,LASAM,VIGA,"CONCRETING OF VIGA FMR,VIGA. LASAM, CAGAYAN",COMPLETED,1,0.795,250,240,18.04269,121.562629
2023,CAGAYAN,II,PAMPLONA,STA. CRUZ,"CONCRETING OF STA. CRUZ FMR, PAMPLONA, CAGAYAN",ONGOING CONSTRUCTION,1,0.43,247,200,18.408283000000001,121.37793000000001
2023,CAGAYAN,III,AMULUNG,CALINTAAN,"CONCRETING OF CALINTAAN FMR, AMULUNG, CAGAYAN",ONGOING CONSTRUCTION,1,0.66,680,70,17.784476999999999,121.640246
2023,CAGAYAN,III,ENRILE,ROMA SUR,"CONCRETING OF ROMA SUR FMR, ENRILE, CAGAYAN",ONGOING CONSTRUCTION,1,0.8,265,250,17.498643999999999,121.705513
2023,CAGAYAN,III,SOLANA,IRAGA,"CONCRETING OF IRAGA FMR, SOLANA, CAGAYAN",COMPLETED,1,0.8,123,100,17.741834999999998,121.674485
2023,CAGAYAN,III,SOLANA,UBONG SOLANA- SAN ANTONIO,"CONCRETING OF UBONG SOLANA FMR- SAN ANTONIO, ENRILE FMR, CAGAYAN",COMPLETED,1,0.8,1028,2500,17.585453999999999,121.611784
2023,ISABELA,I,CABAGAN,ANGANCASILIAN - ANNANUMAN,"CONCRETING OF ANGANCASILIAN - ANNANUMAN FMR,CABAGAN, ISABELA",COMPLETED,1,1.47,170,90,17.424973999999999,121.81350999999999
2023,ISABELA,I,CABAGAN,"SAN JUAN PROPER -FERRY STATION, SAN JUAN","CONCRETING OF SAN JUAN PROPER -FERRY STATION, SAN JUAN FMR,CABAGAN, ISABELA",COMPLETED,1,2.107,83,226,17.420750000000002,121.73976
2023,ISABELA,I,CABAGAN,"SITIO FUGONG MAIN ROAD, SAN ANTONIO","CONCRETING OF SITIO FUGONG MAIN ROAD, SAN ANTONIO FMR,CABAGAN, ISABELA",COMPLETED,1,1.3,112,405,17.383984000000002,121.692958
2023,ISABELA,I,DELFIN ALBANO,CARMENCITA,"CONCRETING OF CARMENCITA FMR, DELFIN, ALBANO, ISABELA",ONGOING CONSTRUCTION,1,1.134,172,120,17.239964000000001,121.75324500000001
2023,ISABELA,I,ILAGAN CITY,ARUSIP - BAGONG SILANG,"CONCRETING OF ARUSIP - BAGONG SILANG FMR, ILAGAN CITY, ISABELA",COMPLETED,1,0.71,381,250,17.113209999999999,121.849234
2023,ISABELA,I,ILAGAN CITY,ARUSIP- CABANNUNGAN 2ND,"CONCRETING OF ARUSIP- CABANNUNGAN 2ND FMR, ILAGAN CITY, ISABELA",COMPLETED,1,0.728,381,400,17.114502000000002,121.84001600000001
2023,ISABELA,I,ILAGAN CITY,PASA,"CONCRETING OF PASA FMR, ILAGAN CITY, ISABELA",COMPLETED,1,0.925,159,200,17.188158999999999,121.954427
2023,ISABELA,I,ILAGAN CITY,SAN IGNACIO,"CONCRETING OF SAN  IGNACIO FMR, ILAGAN CITY, ISABELA",COMPLETED,1,0.925,264,300,17.198286,121.863578
2023,ISABELA,I,ILAGAN CITY,STA. ISABEL- CARRIKIKAN,"CONCRETING OF STA. ISABEL- CARRIKIKAN FMR, ILAGAN CITY, ISABELA",COMPLETED,1,1.09,529,500,17.178861999999999,121.826088
2023,ISABELA,I,STA. MARIA,LINGALING,"CONCRETING OF LINGALING FMR, STA. MARIA, ISABELA",ONGOING CONSTRUCTION,1,1.22,50,30,17.475674000000001,121.74387299999999
2023,ISABELA,I,STA. MARIA,SAN ANTONIO,"CONCRETING OF SAN ANTONIO FMR, STA. MARIA, ISABELA",ONGOING CONSTRUCTION,1,1.342,40,25,17.284607000000001,121.88054099999999
2023,ISABELA,I,STA. MARIA,VILLABUENA,"CONCRETING OF VILLABUENA FMR, STA. MARIA, ISABELA",ONGOING CONSTRUCTION,1,2.7,250,120,17.466055999999998,121.692193
2023,ISABELA,II,SAN MARIANO,GUILINGAN-IBUJAN,"CONCRETING OF GUILINGAN-IBUJAN FMR, SAN MARIANO, ISABELA",COMPLETED,1,1.784,420,400,16.824231999999999,122.066417
2023,ISABELA,II,SAN MARIANO,IBUJAN- JUNCTION,"CONCRETING OF IBUJAN- JUNCTION FMR, SAN MARIANO, ISABELA",COMPLETED,1,0.828,100,70,16.83033,122.068242
2023,ISABELA,II,SAN MARIANO,MACAYUCAYU- IBUJAN,"CONCRETING OF MACAYUCAYU- IBUJAN FMR, SAN MARIANO, ISABELA",COMPLETED,1,0.9781,132,80,16.842030999999999,122.047607
2023,ISABELA,III,ALICIA,M. H. DEL PILAR,"CONCRETING OF M. H. DEL PILAR FMR, ALICIA, ISABELA",COMPLETED,1,0.6059,111,100,16.849791,121.738761
2023,ISABELA,III,ALICIA,RIZAL ( SITIO MARINIT),"CONCRETING OF RIZAL ( SITIO MARINIT) FMR, ALICIA, ISABELA",COMPLETED,1,0.4185,236,215,16.827849000000001,121.67653900000001
2023,ISABELA,III,CABATUAN,NUEVA ERA,"CONCRETING OF NUEVA ERA FMR, CABATUAN, ISABELA",COMPLETED,1,0.315,130,120,16.926269999999999,121.65059599999999
2023,ISABELA,III,RAMON,AMBATALI,"CONCRETING OF AMBATALI FMR, RAMON, ISABELA",COMPLETED,1,0.665,107,90,16.824521000000001,121.515963
2023,ISABELA,III,RAMON,NAGBACALAN,"CONCRETING OF NAGBACALAN FMR, RAMON, ISABELA",ONGOING CONSTRUCTION,1,0.4244,174,150,16.802696999999998,121.57145800000001
2023,ISABELA,IV,CORDON,"PUROK 1 & PUROK 2 , CADAANAN ROAD, MALAPAT","CONCRETING OF PUROK 1 & PUROK 2 , CADAANAN ROAD, MALAPAT FMR, CORDON, ISABELA",COMPLETED,1,0.75,250,130,17.146184000000002,121.754064
2023,ISABELA,IV,CORDON,"SITIO CAMA, CAPIRPIRIWAN","CONCRETING OF SITIO CAMA, CAPIRPIRIWAN FMR, CORDON, ISABELA",COMPLETED,1,1.809,112,80,16.660392999999999,121.447152
2023,ISABELA,V,QUEZON," PADAPAD SWIP, MINAGBAG","CONCRETING OF PADAPAD SWIP, MINAGBAG FMR, QUEZON, ISABELA",COMPLETED,1,1.28,150,250,17.399591000000001,121.61179300000001
2023,ISABELA,V,QUIRINO,SAN MATEO- SAN ISIDRO,"CONCRETING OF SAN MATEO- SAN ISIDRO FMR, QUIRINO, ISABELA",COMPLETED,1,1.53,134,134,17.146184000000002,121.754064
2023,ISABELA,VI,CAUAYAN CITY,CABUGAO,"CONCRETING OF CABUGAO FMR, CAUAYAN CITY, ISABELA",COMPLETED,1,0.873,112,80,16.892067999999998,121.845896
2023,ISABELA,VI,CAUAYAN CITY,CASALATAN,"CONCRETING OF CASALATAN FMR, CAUAYAN CITY, ISABELA",COMPLETED,1,0.5175,150,250,16.888562,121.84922
2023,ISABELA,VI,CAUAYAN CITY,LABINAB,"CONCRETING OF LABINAB FMR, CAUAYAN CITY, ISABELA",COMPLETED,1,0.76,153,153,16.909481,121.775749
2023,ISABELA,VI,CAUAYAN CITY,MINANTE 2,"CONCRETING OF MINANTE 2 FMR, CAUAYAN CITY, ISABELA",COMPLETED,1,1.3995,134,134,16.901416000000001,121.757997
2023,ISABELA,VI,CAUAYAN CITY,SAN FERMIN,"CONCRETING OF SAN FERMIN FMR, CAUAYAN CITY, ISABELA",COMPLETED,1,0.395,111,100,16.943107000000001,121.75469699999999
2023,ISABELA,VI,CAUAYAN CITY,STA. MARIA,"CONCRETING OF STA. MARIA FMR, CAUAYAN CITY, ISABELA",COMPLETED,1,0.531,250,130,16.850912999999998,121.910769
2023,ISABELA,VI,ECHAGUE,DIASAN,"CONCRETING OF DIASAN FMR,ECHAGUE, ISABELA",COMPLETED,1,0.58,198,200,16.648205999999998,121.811857
2023,ISABELA,VI,ECHAGUE,PAG-ASA-AROMIN,"CONCRETING OF PAG-ASA- AROMIN FMR,ECHAGUE, ISABELA",COMPLETED,1,1.19,177,160,16.691043000000001,121.754994
2023,ISABELA,VI,ECHAGUE,STA. MONICA- LIBERTAD,"CONCRETING OF STA. MONICA- LIBERTAD FMR,ECHAGUE, ISABELA",COMPLETED,1,0.782,107,110,16.679721000000001,121.626914
2023,ISABELA,VI,SAN GUILLERMO,SAN RAFAEL - VILLA ROSE,"CONCRETING OF SAN RAFAEL - VILLA ROSE FMR, SAN GUILLERMO, ISABELA",COMPLETED,1,0.73,239,350,16.750913000000001,121.90391
2023,NUEVA VIZCAYA,LONE,ARITAO,BONE SOUTH,"CONCRETING OF BONE SOUTH FMR, ARITAO, NUEVA VIZCAYA",COMPLETED,1,0.802,450,400,16.24151028,120.99922639
2023,NUEVA VIZCAYA,LONE,BAMBANG,BANAO SECTION MABUSLO,"CONCRETING OF BANAO SECTION MABUSLO FMR,BAMBANG, NUEVA VIZCAYA",COMPLETED,1,0.594,250,150,16.367360560000002,121.1608325
2023,NUEVA VIZCAYA,LONE,BAMBANG,MAGSAYSAY HILLS,"CONCRETING OF MAGSAYSAY HILS FMR,BAMBANG, NUEVA VIZCAYA",COMPLETED,1,0.8,226,120,16.37488806,121.1219825
2023,NUEVA VIZCAYA,LONE,BAMBANG,"PUROK NANGKALAPAN, SALINAS","CONRETING OF PUROK NANGKALAPAN, SALINAS FMR,BAMBANG, NUEVA VIZCAYA",COMPLETED,1,0.486,200,150,16.361397,121.02270300000001
2023,NUEVA VIZCAYA,LONE,BAMBANG,SAN ANTONIO SOUTH - DULLAO,"CONCRETING OF SAN ANTONIO SOUTH- DULLAO FMR,BAMBANG, NUEVA VIZCAYA",COMPLETED,1,0.6445,133,170,16.356172999999998,121.116545
2023,NUEVA VIZCAYA,LONE,DIADI,VILLA FLORENTINO - VILLA AURORA,"CONCRETING OF  VILLA FLORENTINO - VILLA AURORA FMR, DIADI, NUEVA VIZCAYA",COMPLETED,1,0.6422,180,350,16.623549000000001,121.428617
2023,QUIRINO,LONE,AGLIPAY,PALACIAN- DIODOL,"CONCRETING OF PALACIAN- DIODOL FMR, AGLIPAY, QUIRINO",COMPLETED,1,0.7205,72,250,16.441485,121.62175999999999
2023,QUIRINO,LONE,AGLIPAY,SAN LEONARDO,"CONCRETING/IMPROVEMENT OF  SAN LEONARDO FMR, AGLIPAY, QUIRINO",COMPLETED,1,0.349,70,70,16.489771000000001,121.591943
2023,QUIRINO,LONE,CABARROGUIS,GOMEZ,"CONCRETING/IMPROVEMENT OF GOMEZ FMR, CABARROGUIS, QUIRINO",COMPLETED,1,0.273,50,350,16.466321000000001,121.482868
2023,QUIRINO,LONE,CABARROGUIS,MANGANDINGAY,"CONCRETING/ IMPROVEMENT OF MANGANDINGAY FMR, CABARROGUIS, QUIRINO",COMPLETED,1,0.245,91,90,16.508140000000001,121.544192
2023,QUIRINO,LONE,CABARROGUIS- DIFFUN,"CALAOCAN, CABARROGUIS - MACATE","CONCRETING OF CALAOCAN, CABARROGUIS - MACATE, DIFFUN FMR",COMPLETED,1,0.49,160,198,16.460384999999999,121.462433
2023,QUIRINO,LONE,DIFFUN,SITIO NAVARRO- SAN ISIDRO,"CONCRETING OF SITIO NAVARRO- SAN ISIDRO FMR,DIFFUN, QUIRINO",COMPLETED,1,0.5165,187,180,16.631734000000002,121.494522
2023,QUIRINO,LONE,MADDELA,DUMABATO NORTE,"CONCRETING/IMPROVEMENT OF DUMABATO NORTE FMR, MADDELA, QUIRINO",COMPLETED,1,0.288,76,150,16.350745,121.65839200000001
2023,QUIRINO,LONE,MADDELA,SAN MARTIN,"CONCRETING OF SAN MARTIN FMR, MADDELA, QUIRINO",COMPLETED,1,0.345,617,231,16.391276999999999,121.77868700000001
2023,QUIRINO,LONE,MADDELA,VILLA GARCIA,"CONCRETING/IMPROVEMENT OF VILLA GARCIA FMR, MADDELA, QUIRINO",COMPLETED,1,0.2255,41,250,16.306567000000001,121.758337
2023,QUIRINO,LONE,SAGUDAY,LA PAZ,"CONCRETING/IMPROVEMENT OF LA PAZ FMR, SAGUDAY, QUIRINO",COMPLETED,1,0.388,50,50,16.581582999999998,121.57124899999999
2024,BATANES,LONE,ITBAYAT,"CONCRETING OF DA CILIO - MARANATU FMR, BRGY. STA. ROSA, ITBAYAT, BATANES",20.804117000000002,0.219,1,158,200,50,121.856898,121.83702700000001
2024,BATANES,LONE,ITBAYAT,"CONCRETING OF DA CILIO - MARANATU FMR, BRGY. STA. ROSA, ITBAYAT, BATANES","CONCRETING OF DAMANSUÑITEN - KAGAWRAN FMR, BRGY. SAN RAFAEL, ITBAYAT, BATANES",0.219,1,0.22,61,95,20.786460000000002,121.836798
2024,BATANES,LONE,ITBAYAT,"CONCRETING OF DA CILIO - MARANATU FMR, BRGY. STA. ROSA, ITBAYAT, BATANES","CONCRETING OF KADUNG - TARUKUK FMR, BRGY. RAELE, ITBAYAT, BATANES",0.219,1,104,100,95,20.724018000000001,0.37
2024,BATANES,LONE,ITBAYAT,"CONCRETING OF DA CILIO - MARANATU FMR, BRGY. STA. ROSA, ITBAYAT, BATANES","CONCRETING OF KAVORAYONGAN - POSOJ FMR, BRGY. STA. MARIA, ITBAYAT, BATANES",0.219,1,0.295,56,50,20.781618000000002,0.37
2024,CAGAYAN,I,ALCALA,"CONCRETING OF DA CILIO - MARANATU FMR, BRGY. STA. ROSA, ITBAYAT, BATANES","CONCRETING OF FULAY - ALEJON - PILLOS FMR, BRGY. CENTRO SUR, ALCALA, CAGAYAN",OPERATIONAL,1,1.0771,116,143,17.895635°, 121.66736°
2024,CAGAYAN,I,BAGGAO,"CONCRETING OF DA CILIO - MARANATU FMR, BRGY. STA. ROSA, ITBAYAT, BATANES","CONCRETING OF BRGY. BARSAT WEST FMR, BRGY. BARSAT WEST, BAGGAO, CAGAYAN",OPERATIONAL,1,0.36,180,150,17.931625°, 121.868403°
2024,CAGAYAN,I,BAGGAO,"CONCRETING OF DA CILIO - MARANATU FMR, BRGY. STA. ROSA, ITBAYAT, BATANES","CONCRETING OF BRGY. BITAG GRANDE FMR, BRGY. BITAG GRANDE, BAGGAO, CAGAYAN",OPERATIONAL,1,0.878,180,150,17.83729°, 121.734548°
2024,CAGAYAN,I,GATTARAN,"CONCRETING OF DA CILIO - MARANATU FMR, BRGY. STA. ROSA, ITBAYAT, BATANES","CONCRETING OF BRGY. BANGATAN FMR, BRGY. BANGATAN, GATTARAN, CAGAYAN",OPERATIONAL,1,0.86,406,400,18.034033°, 121.75581°
2024,CAGAYAN,I,GATTARAN,"CONCRETING OF DA CILIO - MARANATU FMR, BRGY. STA. ROSA, ITBAYAT, BATANES","CONCRETING OF GANZANO FMR PHASE I, BRGY. GANZANO, GATTARAN, CAGAYAN",OPERATIONAL,1,0.578,480,500,18.024972°, 121.645328°
2024,CAGAYAN,I,SANTA TERESITA,"CONCRETING OF DA CILIO - MARANATU FMR, BRGY. STA. ROSA, ITBAYAT, BATANES","CONCRETING OF NANGAUILIAN FMR, BRGY. MISSION, SANTA TERESITA, CAGAYAN",OPERATIONAL,1,0.948,70,85,18.238432°, 121.939943°
2024,CAGAYAN,I,STA. ANA,"CONCRETING OF DA CILIO - MARANATU FMR, BRGY. STA. ROSA, ITBAYAT, BATANES","CONCRETING OF BRGY. GOTAN FMR, BRGY. GOTAN, STA. ANA, CAGAYAN",ONGOING,1,0.3825,66,40,18.504842,122.104283
